{"version": 0.6, "generator": "Overpass API 0.7.62.11 87bfad18", "osm3s": {"timestamp_osm_base": "2026-05-19T04:14:57Z", "copyright": "The data included in this document is from www.openstreetmap.org. The data is made available under ODbL."}, "elements": [{"type": "node", "id": 2775046946, "lat": 31.2106846, "lon": 121.3045569, "tags": {"bus": "yes", "highway": "bus_stop", "name": "\u5b81\u8679\u8def\u7533\u6ee8\u8def", "name:zh": "\u5b81\u8679\u8def\u7533\u6ee8\u8def", "public_transport": "platform"}}, {"type": "node", "id": 2982299422, "lat": 31.1705454, "lon": 121.266077, "tags": {"bus": "yes", "highway": "bus_stop", "name": "\u660e\u73e0\u8def\u80b2\u624d\u8def", "name:zh": "\u660e\u73e0\u8def\u80b2\u624d\u8def", "public_transport": "platform"}}, {"type": "node", "id": 2982299423, "lat": 31.1704559, "lon": 121.2662669, "tags": {"bus": "yes", "highway": "bus_stop", "name": "\u660e\u73e0\u8def\u80b2\u624d\u8def", "name:zh": "\u660e\u73e0\u8def\u80b2\u624d\u8def", "public_transport": "platform"}}, {"type": "node", "id": 3632110618, "lat": 31.2883438, "lon": 121.1591109, "tags": {"bus": "yes", "highway": "bus_stop", "name": "\u58a8\u7389\u8def\u66f9\u5b89\u516c\u8def", "name:zh": "\u58a8\u7389\u8def\u66f9\u5b89\u516c\u8def", "public_transport": "platform"}}, {"type": "node", "id": 3632110621, "lat": 31.2897453, "lon": 121.1587106, "tags": {"bus": "yes", "highway": "bus_stop", "name": "\u58a8\u7389\u8def\u66f9\u5b89\u516c\u8def", "name:zh": "\u58a8\u7389\u8def\u66f9\u5b89\u516c\u8def", "public_transport": "platform"}}, {"type": "node", "id": 3657412361, "lat": 31.3857078, "lon": 120.9895824, "tags": {"bus": "yes", "highway": "bus_stop", "name": "\u91d1\u6d66\u5927\u6865\u4e1c", "name:zh": "\u91d1\u6d66\u5927\u6865\u4e1c", "public_transport": "platform"}}, {"type": "node", "id": 3657412364, "lat": 31.386097, "lon": 121.0015089, "tags": {"bus": "yes", "highway": "bus_stop", "name": "\u5b97\u4ec1\u537f\u7eaa\u5ff5\u533b\u9662", "name:zh": "\u5b97\u4ec1\u537f\u7eaa\u5ff5\u533b\u9662", "public_transport": "platform"}}, {"type": "node", "id": 3790165870, "lat": 31.3165618, "lon": 121.1616557, "tags": {"bus": "yes", "highway": "bus_stop", "name": "\u58a8\u7389\u5317\u8def\u5b9d\u5b89\u516c\u8def", "name:zh": "\u58a8\u7389\u5317\u8def\u5b9d\u5b89\u516c\u8def", "public_transport": "platform"}}, {"type": "node", "id": 3791619146, "lat": 31.3011251, "lon": 121.1492952, "tags": {"bus": "yes", "highway": "bus_stop", "name": "\u83e9\u63d0\u5bfa", "name:zh": "\u83e9\u63d0\u5bfa", "public_transport": "platform"}}, {"type": "node", "id": 3791619148, "lat": 31.3103185, "lon": 121.1461842, "tags": {"bus": "yes", "highway": "bus_stop", "name": "\u6c81\u5bcc\u4f73\u82d1", "name:zh": "\u6c81\u5bcc\u4f73\u82d1", "public_transport": "platform"}}, {"type": "node", "id": 3791619149, "lat": 31.3161727, "lon": 121.1517125, "tags": {"bus": "yes", "highway": "bus_stop", "name": "\u5b89\u4ead\u5317\u706b\u8f66\u7ad9", "name:zh": "\u5b89\u4ead\u5317\u706b\u8f66\u7ad9", "public_transport": "platform"}}, {"type": "node", "id": 3792523874, "lat": 31.2701497, "lon": 121.168078, "tags": {"bus": "yes", "highway": "bus_stop", "name": "\u5b89\u667a\u8def\u5b89\u6210\u8def", "name:zh": "\u5b89\u667a\u8def\u5b89\u6210\u8def", "public_transport": "platform"}}, {"type": "node", "id": 3792523875, "lat": 31.2704872, "lon": 121.1674667, "tags": {"bus": "yes", "highway": "bus_stop", "name": "\u5b89\u667a\u8def\u5b89\u6210\u8def", "name:zh": "\u5b89\u667a\u8def\u5b89\u6210\u8def", "public_transport": "platform"}}, {"type": "node", "id": 3792523876, "lat": 31.2718219, "lon": 121.1665767, "tags": {"bus": "yes", "highway": "bus_stop", "name": "\u5b89\u6210\u8def\u5b89\u793c\u8def", "name:zh": "\u5b89\u6210\u8def\u5b89\u793c\u8def", "public_transport": "platform"}}, {"type": "node", "id": 3792523877, "lat": 31.2725436, "lon": 121.1666594, "tags": {"bus": "yes", "highway": "bus_stop", "name": "\u5b89\u6210\u8def\u5b89\u793c\u8def", "name:zh": "\u5b89\u6210\u8def\u5b89\u793c\u8def", "public_transport": "platform"}}, {"type": "node", "id": 3792523878, "lat": 31.2737846, "lon": 121.1641345, "tags": {"bus": "yes", "highway": "bus_stop", "name": "\u5317\u5b89\u5fb7\u8def\u5b89\u793c\u8def", "name:zh": "\u5317\u5b89\u5fb7\u8def\u5b89\u793c\u8def", "public_transport": "platform"}}, {"type": "node", "id": 3792523879, "lat": 31.2739806, "lon": 121.1640764, "tags": {"bus": "yes", "highway": "bus_stop", "name": "\u5317\u5b89\u5fb7\u8def\u5b89\u793c\u8def", "name:zh": "\u5317\u5b89\u5fb7\u8def\u5b89\u793c\u8def", "public_transport": "platform"}}, {"type": "node", "id": 3792523880, "lat": 31.2753904, "lon": 121.1664082, "tags": {"bus": "yes", "highway": "bus_stop", "name": "\u5317\u5b89\u5fb7\u8def\u5b89\u6210\u8def", "name:zh": "\u5317\u5b89\u5fb7\u8def\u5b89\u6210\u8def", "public_transport": "platform"}}, {"type": "node", "id": 3792523881, "lat": 31.2755501, "lon": 121.1605077, "tags": {"bus": "yes", "highway": "bus_stop", "name": "\u58a8\u7389\u5357\u8def\u5b89\u793c\u8def", "name:zh": "\u58a8\u7389\u5357\u8def\u5b89\u793c\u8def", "public_transport": "platform"}}, {"type": "node", "id": 3792523882, "lat": 31.2755294, "lon": 121.1667073, "tags": {"bus": "yes", "highway": "bus_stop", "name": "\u5317\u5b89\u5fb7\u8def\u5b89\u6210\u8def", "name:zh": "\u5317\u5b89\u5fb7\u8def\u5b89\u6210\u8def", "public_transport": "platform"}}, {"type": "node", "id": 3792523883, "lat": 31.2749186, "lon": 121.1611042, "tags": {"bus": "yes", "highway": "bus_stop", "name": "\u5b89\u793c\u8def\u58a8\u7389\u5357\u8def", "name:zh": "\u5b89\u793c\u8def\u58a8\u7389\u5357\u8def", "public_transport": "platform"}}, {"type": "node", "id": 3792523884, "lat": 31.2825441, "lon": 121.1599591, "tags": {"bus": "yes", "highway": "bus_stop", "name": "\u58a8\u7389\u5357\u8def\u535a\u56ed\u8def", "name:zh": "\u58a8\u7389\u5357\u8def\u535a\u56ed\u8def", "public_transport": "platform"}}, {"type": "node", "id": 3792523885, "lat": 31.2828568, "lon": 121.1601682, "tags": {"bus": "yes", "highway": "bus_stop", "name": "\u58a8\u7389\u5357\u8def\u535a\u56ed\u8def", "name:zh": "\u58a8\u7389\u5357\u8def\u535a\u56ed\u8def", "public_transport": "platform"}}, {"type": "node", "id": 3799492548, "lat": 31.2933339, "lon": 121.1573469, "tags": {"bus": "yes", "highway": "bus_stop", "name": "\u6cfd\u666e\u8def\u58a8\u7389\u8def", "name:zh": "\u6cfd\u666e\u8def\u58a8\u7389\u8def", "public_transport": "platform"}}, {"type": "node", "id": 3799492549, "lat": 31.2934833, "lon": 121.1583444, "tags": {"bus": "yes", "highway": "bus_stop", "name": "\u6cfd\u666e\u8def\u58a8\u7389\u8def", "name:zh": "\u6cfd\u666e\u8def\u58a8\u7389\u8def", "public_transport": "platform"}}, {"type": "node", "id": 3818553125, "lat": 31.3461706, "lon": 121.2518625, "tags": {"bus": "yes", "highway": "bus_stop", "name": "\u6c38\u76db\u8def\u5929\u795d\u8def", "name:zh": "\u6c38\u76db\u8def\u5929\u795d\u8def", "public_transport": "platform"}}, {"type": "node", "id": 3818553136, "lat": 31.347455, "lon": 121.2516198, "tags": {"bus": "yes", "highway": "bus_stop", "name": "\u6c38\u76db\u8def\u5929\u795d\u8def", "name:zh": "\u6c38\u76db\u8def\u5929\u795d\u8def", "public_transport": "platform"}}, {"type": "node", "id": 3818553589, "lat": 31.3509587, "lon": 121.2489459, "tags": {"bus": "yes", "highway": "bus_stop", "name": "\u6c38\u76db\u8def\u767d\u94f6\u8def", "name:zh": "\u6c38\u76db\u8def\u767d\u94f6\u8def", "public_transport": "platform"}}, {"type": "node", "id": 3818553599, "lat": 31.353717, "lon": 121.2094787, "tags": {"bus": "yes", "highway": "bus_stop", "name": "\u516d\u91cc\u6865", "name:zh": "\u516d\u91cc\u6865", "public_transport": "platform"}}, {"type": "node", "id": 3818553601, "lat": 31.354204, "lon": 121.2096838, "tags": {"bus": "yes", "highway": "bus_stop", "name": "\u516d\u91cc\u6865", "name:zh": "\u516d\u91cc\u6865", "public_transport": "platform"}}, {"type": "node", "id": 3818553611, "lat": 31.356495, "lon": 121.2462862, "tags": {"bus": "yes", "highway": "bus_stop", "name": "\u6c38\u76db\u8def\u6d2a\u5fb7\u8def", "name:zh": "\u6c38\u76db\u8def\u6d2a\u5fb7\u8def", "public_transport": "platform"}}, {"type": "node", "id": 3818553613, "lat": 31.3658061, "lon": 121.2230197, "tags": {"bus": "yes", "highway": "bus_stop", "name": "\u73b0\u9f99", "name:zh": "\u73b0\u9f99", "public_transport": "platform"}}, {"type": "node", "id": 3818553614, "lat": 31.3663799, "lon": 121.2234481, "tags": {"bus": "yes", "highway": "bus_stop", "name": "\u73b0\u9f99", "name:zh": "\u73b0\u9f99", "public_transport": "platform"}}, {"type": "node", "id": 3832376561, "lat": 31.2951346, "lon": 121.1526639, "tags": {"bus": "yes", "highway": "bus_stop", "name": "\u65b0\u6e90\u8def\u660c\u5409\u8def", "name:zh": "\u65b0\u6e90\u8def\u660c\u5409\u8def", "public_transport": "platform"}}, {"type": "node", "id": 3832376562, "lat": 31.2953544, "lon": 121.1521079, "tags": {"bus": "yes", "highway": "bus_stop", "name": "\u65b0\u6e90\u8def\u660c\u5409\u8def", "name:zh": "\u65b0\u6e90\u8def\u660c\u5409\u8def", "public_transport": "platform"}}, {"type": "node", "id": 3898081936, "lat": 31.2622532, "lon": 121.1755911, "tags": {"bus": "yes", "highway": "bus_stop", "name": "\u9f9a\u95f5\u6751", "name:zh": "\u9f9a\u95f5\u6751", "public_transport": "platform"}}, {"type": "node", "id": 3899223350, "lat": 31.30009, "lon": 121.1500367, "tags": {"bus": "yes", "highway": "bus_stop", "name": "\u83e9\u63d0\u5bfa", "name:zh": "\u83e9\u63d0\u5bfa", "public_transport": "platform"}}, {"type": "node", "id": 3899247000, "lat": 31.2917311, "lon": 121.1587392, "tags": {"bus": "yes", "highway": "bus_stop", "name": "\u5b89\u4ead\u6c7d\u8f66\u7ad9", "name:zh": "\u5b89\u4ead\u6c7d\u8f66\u7ad9", "public_transport": "platform"}}, {"type": "node", "id": 3899247002, "lat": 31.2922818, "lon": 121.1590065, "tags": {"bus": "yes", "highway": "bus_stop", "name": "\u5b89\u4ead\u6c7d\u8f66\u7ad9", "name:zh": "\u5b89\u4ead\u6c7d\u8f66\u7ad9", "public_transport": "platform"}}, {"type": "node", "id": 4068079815, "lat": 31.2275267, "lon": 121.1563047, "tags": {"bus": "yes", "highway": "bus_stop", "name": "\u59da\u7ae0\u8def\u7ae0\u5830\u6751", "name:zh": "\u59da\u7ae0\u8def\u7ae0\u5830\u6751", "public_transport": "platform"}}, {"type": "node", "id": 4083083036, "lat": 31.2266723, "lon": 121.1799455, "tags": {"bus": "yes", "highway": "bus_stop", "name": "\u8d75\u91cd\u516c\u8def\u738b\u5bb6\u5b85", "name:zh": "\u8d75\u91cd\u516c\u8def\u738b\u5bb6\u5b85", "public_transport": "platform"}}, {"type": "node", "id": 4083083041, "lat": 31.2277755, "lon": 121.1800635, "tags": {"bus": "yes", "highway": "bus_stop", "name": "\u8d75\u91cd\u516c\u8def\u738b\u5bb6\u5b85", "name:zh": "\u8d75\u91cd\u516c\u8def\u738b\u5bb6\u5b85", "public_transport": "platform"}}, {"type": "node", "id": 4235316054, "lat": 31.2663305, "lon": 121.1932662, "tags": {"bus": "yes", "highway": "bus_stop", "name": "\u535a\u56ed\u8def\u5609\u677e\u5317\u8def", "name:zh": "\u535a\u56ed\u8def\u5609\u677e\u5317\u8def", "public_transport": "platform"}}, {"type": "node", "id": 4235316055, "lat": 31.2663422, "lon": 121.1981441, "tags": {"bus": "yes", "highway": "bus_stop", "name": "\u535a\u56ed\u8def\u5609\u677e\u5317\u8def", "name:zh": "\u535a\u56ed\u8def\u5609\u677e\u5317\u8def", "public_transport": "platform"}}, {"type": "node", "id": 4235316056, "lat": 31.2680921, "lon": 121.1905205, "tags": {"bus": "yes", "highway": "bus_stop", "name": "\u535a\u56ed\u8def\u5b89\u8679\u8def", "name:zh": "\u535a\u56ed\u8def\u5b89\u8679\u8def", "public_transport": "platform"}}, {"type": "node", "id": 4235316057, "lat": 31.2742752, "lon": 121.1890863, "tags": {"bus": "yes", "highway": "bus_stop", "name": "\u535a\u56ed\u8def\u5b89\u8679\u8def", "name:zh": "\u535a\u56ed\u8def\u5b89\u8679\u8def", "public_transport": "platform"}}, {"type": "node", "id": 4235316058, "lat": 31.2763442, "lon": 121.1866867, "tags": {"bus": "yes", "highway": "bus_stop", "name": "\u535a\u56ed\u8def\u5b89\u7814\u8def", "name:zh": "\u535a\u56ed\u8def\u5b89\u7814\u8def", "public_transport": "platform"}}, {"type": "node", "id": 4235316059, "lat": 31.2759989, "lon": 121.1889294, "tags": {"bus": "yes", "highway": "bus_stop", "name": "\u5b89\u8679\u8def\u535a\u56ed\u8def", "name:zh": "\u5b89\u8679\u8def\u535a\u56ed\u8def", "public_transport": "platform"}}, {"type": "node", "id": 4235316061, "lat": 31.2822426, "lon": 121.1622921, "tags": {"bus": "yes", "highway": "bus_stop", "name": "\u535a\u56ed\u8def\u58a8\u7389\u5357\u8def", "name:zh": "\u535a\u56ed\u8def\u58a8\u7389\u5357\u8def", "public_transport": "platform"}}, {"type": "node", "id": 4237669929, "lat": 31.3034765, "lon": 121.1453164, "tags": {"bus": "yes", "highway": "bus_stop", "name": "\u548c\u9759\u8def\u5b89\u4ead\u8001\u8857", "name:zh": "\u548c\u9759\u8def\u5b89\u4ead\u8001\u8857", "public_transport": "platform"}}, {"type": "node", "id": 4254503086, "lat": 31.2793713, "lon": 121.1863477, "tags": {"bus": "yes", "highway": "bus_stop", "name": "\u5b89\u7814\u8def\u5b89\u62d3\u8def", "name:zh": "\u5b89\u7814\u8def\u5b89\u62d3\u8def", "public_transport": "platform"}}, {"type": "node", "id": 4254503492, "lat": 31.2803033, "lon": 121.1870209, "tags": {"bus": "yes", "highway": "bus_stop", "name": "\u5b89\u7814\u8def\u5b89\u62d3\u8def", "name:zh": "\u5b89\u7814\u8def\u5b89\u62d3\u8def", "public_transport": "platform"}}, {"type": "node", "id": 4254503499, "lat": 31.2807829, "lon": 121.1757094, "tags": {"bus": "yes", "highway": "bus_stop", "name": "\u535a\u56ed\u8def\u4e8e\u7530\u5357\u8def", "name:zh": "\u535a\u56ed\u8def\u4e8e\u7530\u5357\u8def", "public_transport": "platform"}}, {"type": "node", "id": 4369423646, "lat": 31.163806, "lon": 121.3052145, "tags": {"bus": "yes", "highway": "bus_stop", "name": "\u9ad8\u5149\u8def\u9ad8\u6cfe\u652f\u8def", "name:zh": "\u9ad8\u5149\u8def\u9ad8\u6cfe\u652f\u8def", "public_transport": "platform"}}, {"type": "node", "id": 4437200606, "lat": 31.1659862, "lon": 121.2907163, "tags": {"bus": "yes", "highway": "bus_stop", "name": "\u9ad8\u6cfe\u8def\u6cb3\u6cfe\u6e2f", "name:zh": "\u9ad8\u6cfe\u8def\u6cb3\u6cfe\u6e2f", "public_transport": "platform"}}, {"type": "node", "id": 4437727539, "lat": 31.3049993, "lon": 121.1476768, "tags": {"bus": "yes", "highway": "bus_stop", "name": "\u65b0\u6e90\u8def\u548c\u9759\u8def", "name:zh": "\u65b0\u6e90\u8def\u548c\u9759\u8def", "public_transport": "platform"}}, {"type": "node", "id": 4437727541, "lat": 31.3077413, "lon": 121.1566357, "tags": {"bus": "yes", "highway": "bus_stop", "name": "\u6c11\u4e30\u8def\u58a8\u7389\u8def", "name:zh": "\u6c11\u4e30\u8def\u58a8\u7389\u8def", "public_transport": "platform"}}, {"type": "node", "id": 4437727542, "lat": 31.3077601, "lon": 121.1483028, "tags": {"bus": "yes", "highway": "bus_stop", "name": "\u6c11\u4e30\u8def\u65b0\u6e90\u8def", "name:zh": "\u6c11\u4e30\u8def\u65b0\u6e90\u8def", "public_transport": "platform"}}, {"type": "node", "id": 4437727547, "lat": 31.307869, "lon": 121.1484415, "tags": {"bus": "yes", "highway": "bus_stop", "name": "\u6c11\u4e30\u8def\u65b0\u6e90\u8def", "name:zh": "\u6c11\u4e30\u8def\u65b0\u6e90\u8def", "public_transport": "platform"}}, {"type": "node", "id": 4437727548, "lat": 31.3079383, "lon": 121.1564163, "tags": {"bus": "yes", "highway": "bus_stop", "name": "\u6c11\u4e30\u8def\u58a8\u7389\u8def", "name:zh": "\u6c11\u4e30\u8def\u58a8\u7389\u8def", "public_transport": "platform"}}, {"type": "node", "id": 4437727748, "lat": 31.2970681, "lon": 121.1526517, "tags": {"bench": "yes", "bus": "yes", "highway": "bus_stop", "name": "\u660c\u5409\u8def\u65b0\u6e90\u8def", "public_transport": "platform", "shelter": "yes"}}, {"type": "node", "id": 4437727749, "lat": 31.2970886, "lon": 121.1573599, "tags": {"bench": "yes", "bus": "yes", "highway": "bus_stop", "name": "\u660c\u5409\u8def\u58a8\u7389\u8def", "public_transport": "platform", "shelter": "yes"}}, {"type": "node", "id": 4437727754, "lat": 31.2971613, "lon": 121.1529873, "tags": {"bench": "yes", "bus": "yes", "highway": "bus_stop", "name": "\u660c\u5409\u8def\u65b0\u6e90\u8def", "public_transport": "platform", "shelter": "yes"}}, {"type": "node", "id": 4437727755, "lat": 31.2971818, "lon": 121.1576955, "tags": {"bench": "yes", "bus": "yes", "highway": "bus_stop", "name": "\u660c\u5409\u8def\u58a8\u7389\u8def", "public_transport": "platform", "shelter": "yes"}}, {"type": "node", "id": 4437727757, "lat": 31.304859, "lon": 121.1479285, "tags": {"bus": "yes", "highway": "bus_stop", "name": "\u65b0\u6e90\u8def\u548c\u9759\u8def", "name:zh": "\u65b0\u6e90\u8def\u548c\u9759\u8def", "public_transport": "platform"}}, {"type": "node", "id": 4485247322, "lat": 31.3163889, "lon": 121.1528549, "tags": {"bus": "yes", "highway": "bus_stop", "name": "\u5b89\u4ead\u5317\u706b\u8f66\u7ad9", "name:zh": "\u5b89\u4ead\u5317\u706b\u8f66\u7ad9", "public_transport": "platform"}}, {"type": "node", "id": 4485247325, "lat": 31.2838079, "lon": 121.1399355, "tags": {"bus": "yes", "highway": "bus_stop", "name": "\u5916\u9752\u677e\u516c\u8def\u7eff\u5730\u5927\u9053", "name:zh": "\u5916\u9752\u677e\u516c\u8def\u7eff\u5730\u5927\u9053", "public_transport": "platform"}}, {"type": "node", "id": 4485247328, "lat": 31.2908578, "lon": 121.1580765, "tags": {"bus": "yes", "highway": "bus_stop", "name": "\u66f9\u5b89\u516c\u8def\u58a8\u7389\u8def", "name:zh": "\u66f9\u5b89\u516c\u8def\u58a8\u7389\u8def", "public_transport": "platform"}}, {"type": "node", "id": 4485247449, "lat": 31.3156, "lon": 121.1528837, "tags": {"bus": "yes", "highway": "bus_stop", "name": "\u5b89\u4ead\u5317\u706b\u8f66\u7ad9", "name:zh": "\u5b89\u4ead\u5317\u706b\u8f66\u7ad9", "public_transport": "platform"}}, {"type": "node", "id": 4485295049, "lat": 31.2935538, "lon": 121.1383744, "tags": {"bus": "yes", "highway": "bus_stop", "name": "\u5916\u9752\u677e\u516c\u8def\u66f9\u5b89\u8def", "name:zh": "\u5916\u9752\u677e\u516c\u8def\u66f9\u5b89\u8def", "public_transport": "platform"}}, {"type": "node", "id": 4489662189, "lat": 31.1949334, "lon": 121.3125799, "tags": {"bus": "yes", "highway": "bus_stop", "name": "\u8679\u6865\u897f\u4ea4\u901a\u4e2d\u5fc3", "name:zh": "\u8679\u6865\u897f\u4ea4\u901a\u4e2d\u5fc3", "public_transport": "platform"}}, {"type": "node", "id": 4489673990, "lat": 31.2090112, "lon": 121.3040512, "tags": {"bus": "yes", "highway": "bus_stop", "name": "\u7533\u6ee8\u8def\u5b81\u8679\u8def", "name:zh": "\u7533\u6ee8\u8def\u5b81\u8679\u8def", "public_transport": "platform"}}, {"type": "node", "id": 4489681389, "lat": 31.194935, "lon": 121.3121254, "tags": {"bus": "yes", "highway": "bus_stop", "name": "\u7533\u8679\u8def\u821f\u8679\u8def", "name:zh": "\u7533\u8679\u8def\u821f\u8679\u8def", "public_transport": "platform"}}, {"type": "node", "id": 4489687890, "lat": 31.2080261, "lon": 121.3040223, "tags": {"bus": "yes", "highway": "bus_stop", "name": "\u7533\u6ee8\u8def\u5b81\u8679\u8def", "name:zh": "\u7533\u6ee8\u8def\u5b81\u8679\u8def", "public_transport": "platform"}}, {"type": "node", "id": 4490537811, "lat": 31.2479562, "lon": 121.1346715, "tags": {"bus": "yes", "highway": "bus_stop", "name": "\u5916\u9752\u677e\u516c\u8def\u7eaa\u9e64\u516c\u8def", "name:zh": "\u5916\u9752\u677e\u516c\u8def\u7eaa\u9e64\u516c\u8def", "public_transport": "platform"}}, {"type": "node", "id": 4490537812, "lat": 31.2844667, "lon": 121.1399785, "tags": {"bus": "yes", "highway": "bus_stop", "name": "\u5916\u9752\u677e\u516c\u8def\u7eff\u5730\u5927\u9053", "name:zh": "\u5916\u9752\u677e\u516c\u8def\u7eff\u5730\u5927\u9053", "public_transport": "platform"}}, {"type": "node", "id": 4490537813, "lat": 31.2795224, "lon": 121.1390488, "tags": {"bus": "yes", "highway": "bus_stop", "name": "\u5916\u9752\u677e\u516c\u8def\u6ee8\u6c5f\u652f\u8def", "name:zh": "\u5916\u9752\u677e\u516c\u8def\u6ee8\u6c5f\u652f\u8def", "public_transport": "platform"}}, {"type": "node", "id": 4490537817, "lat": 31.2703107, "lon": 121.1402169, "tags": {"bus": "yes", "highway": "bus_stop", "name": "\u5916\u9752\u677e\u516c\u8def\u5b89\u9e64\u8def", "name:zh": "\u5916\u9752\u677e\u516c\u8def\u5b89\u9e64\u8def", "public_transport": "platform"}}, {"type": "node", "id": 4490537819, "lat": 31.2595015, "lon": 121.1360152, "tags": {"bus": "yes", "highway": "bus_stop", "name": "\u5916\u9752\u677e\u516c\u8def\u9e64\u5982\u8def", "name:zh": "\u5916\u9752\u677e\u516c\u8def\u9e64\u5982\u8def", "public_transport": "platform"}}, {"type": "node", "id": 4490538489, "lat": 31.2391109, "lon": 121.1311204, "tags": {"bus": "yes", "highway": "bus_stop", "name": "\u5916\u9752\u677e\u516c\u8def\u9e64\u6c11\u8def", "name:zh": "\u5916\u9752\u677e\u516c\u8def\u9e64\u6c11\u8def", "public_transport": "platform"}}, {"type": "node", "id": 4490538490, "lat": 31.2395932, "lon": 121.1310408, "tags": {"bus": "yes", "highway": "bus_stop", "name": "\u5916\u9752\u677e\u516c\u8def\u9e64\u6c11\u8def", "name:zh": "\u5916\u9752\u677e\u516c\u8def\u9e64\u6c11\u8def", "public_transport": "platform"}}, {"type": "node", "id": 4490538491, "lat": 31.2481265, "lon": 121.1344956, "tags": {"bus": "yes", "highway": "bus_stop", "name": "\u5916\u9752\u677e\u516c\u8def\u7eaa\u9e64\u516c\u8def", "name:zh": "\u5916\u9752\u677e\u516c\u8def\u7eaa\u9e64\u516c\u8def", "public_transport": "platform"}}, {"type": "node", "id": 4490538492, "lat": 31.2568443, "lon": 121.1346169, "tags": {"bus": "yes", "highway": "bus_stop", "name": "\u5916\u9752\u677e\u516c\u8def\u9e64\u610f\u8def", "name:zh": "\u5916\u9752\u677e\u516c\u8def\u9e64\u610f\u8def", "public_transport": "platform"}}, {"type": "node", "id": 4490538493, "lat": 31.2586672, "lon": 121.1354434, "tags": {"bus": "yes", "highway": "bus_stop", "name": "\u5916\u9752\u677e\u516c\u8def\u9e64\u5982\u8def", "name:zh": "\u5916\u9752\u677e\u516c\u8def\u9e64\u5982\u8def", "public_transport": "platform"}}, {"type": "node", "id": 4539497509, "lat": 31.2972349, "lon": 121.1605941, "tags": {"bus": "yes", "highway": "bus_stop", "name": "\u660c\u5409\u8def\u58a8\u7389\u8def", "name:zh": "\u660c\u5409\u8def\u58a8\u7389\u8def", "public_transport": "platform"}}, {"type": "node", "id": 4539532003, "lat": 31.2970653, "lon": 121.1612083, "tags": {"bus": "yes", "highway": "bus_stop", "name": "\u660c\u5409\u8def\u58a8\u7389\u8def", "name:zh": "\u660c\u5409\u8def\u58a8\u7389\u8def", "public_transport": "platform"}}, {"type": "node", "id": 4547754858, "lat": 31.14484, "lon": 121.3026863, "tags": {"bus": "yes", "highway": "bus_stop", "name": "\u6d9e\u5bc5\u8def\u6469\u5361\u5c0f\u57ce", "name:zh": "\u6d9e\u5bc5\u8def\u6469\u5361\u5c0f\u57ce", "public_transport": "platform"}}, {"type": "node", "id": 4591054394, "lat": 31.1675883, "lon": 121.309379, "tags": {"bus": "yes", "highway": "bus_stop", "name": "\u8bf8\u5149\u8def\u9ad8\u5149\u8def", "name:zh": "\u8bf8\u5149\u8def\u9ad8\u5149\u8def", "public_transport": "platform"}}, {"type": "node", "id": 4591054398, "lat": 31.167524, "lon": 121.3097317, "tags": {"bus": "yes", "highway": "bus_stop", "name": "\u8bf8\u5149\u8def\u9ad8\u5149\u8def", "name:zh": "\u8bf8\u5149\u8def\u9ad8\u5149\u8def", "public_transport": "platform"}}, {"type": "node", "id": 4689714486, "lat": 31.183696, "lon": 121.2980795, "tags": {"bus": "yes", "highway": "bus_stop", "name": "\u8bf8\u5149\u8def\u76c8\u6e2f\u4e1c\u8def", "name:zh": "\u8bf8\u5149\u8def\u76c8\u6e2f\u4e1c\u8def", "public_transport": "platform"}}, {"type": "node", "id": 4689714488, "lat": 31.1718366, "lon": 121.3064802, "tags": {"bus": "yes", "highway": "bus_stop", "name": "\u8bf8\u5149\u8def\u5f20\u6cfe\u6e2f\u6865", "name:zh": "\u8bf8\u5149\u8def\u5f20\u6cfe\u6e2f\u6865", "public_transport": "platform"}}, {"type": "node", "id": 4689715190, "lat": 31.1841893, "lon": 121.2980286, "tags": {"bus": "yes", "highway": "bus_stop", "name": "\u8bf8\u5149\u8def\u76c8\u6e2f\u4e1c\u8def", "name:zh": "\u8bf8\u5149\u8def\u76c8\u6e2f\u4e1c\u8def", "public_transport": "platform"}}, {"type": "node", "id": 4689715200, "lat": 31.1718685, "lon": 121.3066412, "tags": {"bus": "yes", "highway": "bus_stop", "name": "\u8bf8\u5149\u8def\u5f20\u6cfe\u6e2f\u6865", "name:zh": "\u8bf8\u5149\u8def\u5f20\u6cfe\u6e2f\u6865", "public_transport": "platform"}}, {"type": "node", "id": 4690141473, "lat": 31.1784075, "lon": 121.3022551, "tags": {"bus": "yes", "highway": "bus_stop", "name": "\u8bf8\u5149\u8def\u4f1a\u5353\u8def", "name:zh": "\u8bf8\u5149\u8def\u4f1a\u5353\u8def", "public_transport": "platform"}}, {"type": "node", "id": 4690141474, "lat": 31.179229, "lon": 121.301885, "tags": {"bus": "yes", "highway": "bus_stop", "name": "\u8bf8\u5149\u8def\u4f1a\u5353\u8def", "name:zh": "\u8bf8\u5149\u8def\u4f1a\u5353\u8def", "public_transport": "platform"}}, {"type": "node", "id": 4690158339, "lat": 31.1761803, "lon": 121.3039008, "tags": {"bus": "yes", "highway": "bus_stop", "name": "\u8bf8\u5149\u8def\u8c22\u536b\u8def", "name:zh": "\u8bf8\u5149\u8def\u8c22\u536b\u8def", "public_transport": "platform"}}, {"type": "node", "id": 4690158340, "lat": 31.1735424, "lon": 121.3055301, "tags": {"bus": "yes", "highway": "bus_stop", "name": "\u8bf8\u5149\u8def\u6caa\u9752\u5e73\u516c\u8def", "name:zh": "\u8bf8\u5149\u8def\u6caa\u9752\u5e73\u516c\u8def", "public_transport": "platform"}}, {"type": "node", "id": 4690158342, "lat": 31.1733978, "lon": 121.3054711, "tags": {"bus": "yes", "highway": "bus_stop", "name": "\u8bf8\u5149\u8def\u6caa\u9752\u5e73\u516c\u8def", "name:zh": "\u8bf8\u5149\u8def\u6caa\u9752\u5e73\u516c\u8def", "public_transport": "platform"}}, {"type": "node", "id": 4690158344, "lat": 31.1757947, "lon": 121.3039544, "tags": {"bus": "yes", "highway": "bus_stop", "name": "\u8bf8\u5149\u8def\u8c22\u536b\u8def", "name:zh": "\u8bf8\u5149\u8def\u8c22\u536b\u8def", "public_transport": "platform"}}, {"type": "node", "id": 5242807421, "lat": 31.2674508, "lon": 121.1716855, "tags": {"bus": "yes", "highway": "bus_stop", "name": "\u5b89\u667a\u8def\u5b89\u52c7\u8def", "name:zh": "\u5b89\u667a\u8def\u5b89\u52c7\u8def", "public_transport": "platform"}}, {"type": "node", "id": 5242807423, "lat": 31.2671308, "lon": 121.1720039, "tags": {"bus": "yes", "highway": "bus_stop", "name": "\u5b89\u667a\u8def\u5317\u5b89\u5fb7\u8def", "name:zh": "\u5b89\u667a\u8def\u5317\u5b89\u5fb7\u8def", "public_transport": "platform"}}, {"type": "node", "id": 5524108321, "lat": 31.1543637, "lon": 121.3000517, "tags": {"bus": "yes", "highway": "bus_stop", "name": "\u4e2d\u5927\u4e5d\u91cc\u5fb7", "name:zh": "\u4e2d\u5927\u4e5d\u91cc\u5fb7", "public_transport": "platform"}}, {"type": "node", "id": 5539507321, "lat": 31.1545427, "lon": 121.299644, "tags": {"bus": "yes", "highway": "bus_stop", "name": "\u4e2d\u5927\u4e5d\u91cc\u5fb7", "name:zh": "\u4e2d\u5927\u4e5d\u91cc\u5fb7", "public_transport": "platform"}}, {"type": "node", "id": 5659104833, "lat": 31.3861221, "lon": 121.2724559, "tags": {"bus": "yes", "highway": "bus_stop", "name": "\u4ed3\u573a\u8def\u6f84\u6d4f\u4e2d\u8def", "name:en": "Cangchang Road at Middle Chengliu Road", "name:zh": "\u4ed3\u573a\u8def\u6f84\u6d4f\u4e2d\u8def", "public_transport": "platform"}}, {"type": "node", "id": 5670952422, "lat": 31.3857744, "lon": 121.2718762, "tags": {"bus": "yes", "highway": "bus_stop", "name": "\u4ed3\u573a\u8def\u6f84\u6d4f\u4e2d\u8def", "name:en": "Cangchang Road at Middle Chengliu Road", "name:zh": "\u4ed3\u573a\u8def\u6f84\u6d4f\u4e2d\u8def", "public_transport": "platform"}}, {"type": "node", "id": 5701828721, "lat": 31.0935261, "lon": 121.2493262, "tags": {"bus": "yes", "highway": "bus_stop", "name": "\u6c88\u7816\u516c\u8def\u6d1e\u4e1a\u8def", "name:zh": "\u6c88\u7816\u516c\u8def\u6d1e\u4e1a\u8def", "public_transport": "platform"}}, {"type": "node", "id": 5744799894, "lat": 31.3641103, "lon": 121.1711756, "tags": {"bus": "yes", "highway": "bus_stop", "name": "\u5916\u5188\u9547", "name:zh": "\u5916\u5188\u9547", "public_transport": "platform"}}, {"type": "node", "id": 5746185393, "lat": 31.3515377, "lon": 121.1728518, "tags": {"bus": "yes", "highway": "bus_stop", "name": "\u6052\u6d9b\u8def\u767e\u5b89\u516c\u8def", "name:zh": "\u6052\u6d9b\u8def\u767e\u5b89\u516c\u8def", "public_transport": "platform"}}, {"type": "node", "id": 5746185394, "lat": 31.3515376, "lon": 121.1725339, "tags": {"bus": "yes", "highway": "bus_stop", "name": "\u6052\u6d9b\u8def\u767e\u5b89\u516c\u8def", "name:zh": "\u6052\u6d9b\u8def\u767e\u5b89\u516c\u8def", "public_transport": "platform"}}, {"type": "node", "id": 5759666490, "lat": 31.1507227, "lon": 121.2231443, "tags": {"bus": "yes", "highway": "bus_stop", "name": "\u5609\u677e\u4e2d\u8def\u4e1a\u524d\u8def", "name:zh": "\u5609\u677e\u4e2d\u8def\u4e1a\u524d\u8def", "public_transport": "platform"}}, {"type": "node", "id": 5759669157, "lat": 31.1305563, "lon": 121.2219862, "tags": {"bus": "yes", "highway": "bus_stop", "name": "\u5609\u677e\u4e2d\u8def\u4e1a\u9526\u8def", "name:zh": "\u5609\u677e\u4e2d\u8def\u4e1a\u9526\u8def", "public_transport": "platform"}}, {"type": "node", "id": 5759671818, "lat": 31.0857314, "lon": 121.2253145, "tags": {"bus": "yes", "highway": "bus_stop", "name": "\u6d1e\u6cfe\u5730\u94c1\u7ad9", "name:zh": "\u6d1e\u6cfe\u5730\u94c1\u7ad9", "public_transport": "platform"}}, {"type": "node", "id": 5759673632, "lat": 31.0774938, "lon": 121.2264847, "tags": {"bus": "yes", "highway": "bus_stop", "name": "\u5609\u677e\u5357\u8def\u57ce\u6843\u8def", "name:zh": "\u5609\u677e\u5357\u8def\u57ce\u6843\u8def", "public_transport": "platform"}}, {"type": "node", "id": 5760043312, "lat": 31.1672276, "lon": 121.2210661, "tags": {"bus": "yes", "highway": "bus_stop", "name": "\u5609\u677e\u4e2d\u8def\u76c8\u6e2f\u4e1c\u8def", "name:zh": "\u5609\u677e\u4e2d\u8def\u76c8\u6e2f\u4e1c\u8def", "public_transport": "platform"}}, {"type": "node", "id": 5760052061, "lat": 31.2039172, "lon": 121.2159603, "tags": {"bus": "yes", "highway": "bus_stop", "name": "\u5609\u677e\u4e2d\u8def\u51e4\u4e2d\u8def", "name:zh": "\u5609\u677e\u4e2d\u8def\u51e4\u4e2d\u8def", "public_transport": "platform"}}, {"type": "node", "id": 5855098280, "lat": 31.2823984, "lon": 121.2069612, "tags": {"bus": "yes", "highway": "bus_stop", "name": "\u7eff\u82d1\u8def\u66f9\u5b89\u516c\u8def", "name:en": "LvYuan Road CaoAn Highway", "name:zh": "\u7eff\u82d1\u8def\u66f9\u5b89\u516c\u8def", "public_transport": "platform"}}, {"type": "node", "id": 5855104723, "lat": 31.2822287, "lon": 121.2070792, "tags": {"bus": "yes", "highway": "bus_stop", "name": "\u7eff\u82d1\u8def\u66f9\u5b89\u516c\u8def", "name:en": "LvYuan Road CaoAn Highway", "name:zh": "\u7eff\u82d1\u8def\u66f9\u5b89\u516c\u8def", "public_transport": "platform"}}, {"type": "node", "id": 5856136232, "lat": 31.1612628, "lon": 121.1199502, "tags": {"bus": "yes", "highway": "bus_stop", "name": "\u5916\u9752\u677e\u516c\u8def\u76c8\u6e2f\u8def", "name:zh": "\u5916\u9752\u677e\u516c\u8def\u76c8\u6e2f\u8def", "public_transport": "platform"}}, {"type": "node", "id": 5856147500, "lat": 31.1597544, "lon": 121.1199646, "tags": {"bus": "yes", "highway": "bus_stop", "name": "\u5916\u9752\u677e\u516c\u8def\u76c8\u6e2f\u8def", "name:zh": "\u5916\u9752\u677e\u516c\u8def\u76c8\u6e2f\u8def", "public_transport": "platform"}}, {"type": "node", "id": 5892027592, "lat": 31.1607283, "lon": 121.1189948, "tags": {"bus": "yes", "highway": "bus_stop", "name": "\u76c8\u6e2f\u8def\u5916\u9752\u677e\u516c\u8def", "name:zh": "\u76c8\u6e2f\u8def\u5916\u9752\u677e\u516c\u8def", "public_transport": "platform"}}, {"type": "node", "id": 6089219403, "lat": 31.1801275, "lon": 121.1161389, "tags": {"bus": "yes", "highway": "bus_stop", "name": "\u5916\u9752\u677e\u516c\u8def\u65b0\u79d1\u8def", "name:zh": "\u5916\u9752\u677e\u516c\u8def\u65b0\u79d1\u8def", "public_transport": "platform"}}, {"type": "node", "id": 6089219404, "lat": 31.1994329, "lon": 121.115615, "tags": {"bus": "yes", "highway": "bus_stop", "name": "\u5916\u9752\u677e\u516c\u8def\u5929\u4e00\u8def", "name:zh": "\u5916\u9752\u677e\u516c\u8def\u5929\u4e00\u8def", "public_transport": "platform"}}, {"type": "node", "id": 6089219904, "lat": 31.1737475, "lon": 121.1167982, "tags": {"bus": "yes", "highway": "bus_stop", "name": "\u5916\u9752\u677e\u516c\u8def\u65b0\u4e1a\u8def", "name:en": "Waiqingsong Highway Xinye Road", "name:zh": "\u5916\u9752\u677e\u516c\u8def\u65b0\u4e1a\u8def", "public_transport": "platform"}}, {"type": "node", "id": 6089219905, "lat": 31.1874827, "lon": 121.1145401, "tags": {"bus": "yes", "highway": "bus_stop", "name": "\u5916\u9752\u677e\u516c\u8def\u5317\u9752\u516c\u8def", "name:zh": "\u5916\u9752\u677e\u516c\u8def\u5317\u9752\u516c\u8def", "public_transport": "platform"}}, {"type": "node", "id": 6089220796, "lat": 31.224161, "lon": 121.1270726, "tags": {"bus": "yes", "highway": "bus_stop", "name": "\u5916\u9752\u677e\u516c\u8def\u5434\u5bb6\u6d5c", "name:zh": "\u5916\u9752\u677e\u516c\u8def\u5434\u5bb6\u6d5c", "public_transport": "platform"}}, {"type": "node", "id": 6089222920, "lat": 31.1821011, "lon": 121.1161148, "tags": {"bus": "yes", "highway": "bus_stop", "name": "\u5916\u9752\u677e\u516c\u8def\u65b0\u79d1\u8def", "name:zh": "\u5916\u9752\u677e\u516c\u8def\u65b0\u79d1\u8def", "public_transport": "platform"}}, {"type": "node", "id": 6213509359, "lat": 31.1955849, "lon": 121.098741, "tags": {"bus": "yes", "highway": "bus_stop", "name": "\u65b0\u80dc\u8def\u5929\u76c8\u8def", "name:zh": "\u65b0\u80dc\u8def\u5929\u76c8\u8def", "public_transport": "platform"}}, {"type": "node", "id": 6213509360, "lat": 31.1909375, "lon": 121.0993391, "tags": {"bus": "yes", "highway": "bus_stop", "name": "\u65b0\u80dc\u8def\u5317\u9752\u516c\u8def", "name:zh": "\u65b0\u80dc\u8def\u5317\u9752\u516c\u8def", "public_transport": "platform"}}, {"type": "node", "id": 6213509363, "lat": 31.1791294, "lon": 121.0993432, "tags": {"bus": "yes", "highway": "bus_stop", "name": "\u80dc\u5229\u8def\u5d27\u6cfd\u5927\u9053", "name:zh": "\u80dc\u5229\u8def\u5d27\u6cfd\u5927\u9053", "public_transport": "platform"}}, {"type": "node", "id": 6213509364, "lat": 31.1752775, "lon": 121.094939, "tags": {"bus": "yes", "highway": "bus_stop", "name": "\u76c8\u987a\u8def\u5d27\u6cfd\u5927\u9053", "name:zh": "\u76c8\u987a\u8def\u5d27\u6cfd\u5927\u9053", "public_transport": "platform"}}, {"type": "node", "id": 6213509365, "lat": 31.1810902, "lon": 121.0995551, "tags": {"bus": "yes", "highway": "bus_stop", "name": "\u80dc\u5229\u8def\u5d27\u6cfd\u5927\u9053", "name:zh": "\u80dc\u5229\u8def\u5d27\u6cfd\u5927\u9053", "public_transport": "platform"}}, {"type": "node", "id": 6231683679, "lat": 31.1504012, "lon": 121.1136618, "tags": {"bus": "yes", "highway": "bus_stop", "name": "\u516c\u56ed\u8def\u9752\u5b89\u8def", "name:zh": "\u516c\u56ed\u8def\u9752\u5b89\u8def", "public_transport": "platform"}}, {"type": "node", "id": 6231688212, "lat": 31.1569685, "lon": 121.1134422, "tags": {"bus": "yes", "highway": "bus_stop", "name": "\u9752\u5b89\u8def\u6c99\u57ed\u6d5c\u8def", "name:zh": "\u9752\u5b89\u8def\u6c99\u57ed\u6d5c\u8def", "public_transport": "platform"}}, {"type": "node", "id": 6231689281, "lat": 31.1601244, "lon": 121.1143519, "tags": {"bus": "yes", "highway": "bus_stop", "name": "\u9752\u5b89\u8def\u76c8\u6e2f\u8def", "name:zh": "\u9752\u5b89\u8def\u76c8\u6e2f\u8def", "public_transport": "platform"}}, {"type": "node", "id": 6231692293, "lat": 31.1622155, "lon": 121.1073752, "tags": {"bus": "yes", "highway": "bus_stop", "name": "\u76c8\u6e2f\u8def\u57ce\u4e2d\u5317\u8def", "name:zh": "\u76c8\u6e2f\u8def\u57ce\u4e2d\u5317\u8def", "public_transport": "platform"}}, {"type": "node", "id": 6237271457, "lat": 31.1669112, "lon": 121.0903323, "tags": {"bus": "yes", "highway": "bus_stop", "name": "\u6f15\u76c8\u8def\u6e05\u6cb3\u6e7e\u8def\u5357", "name:zh": "\u6f15\u76c8\u8def\u6e05\u6cb3\u6e7e\u8def\u5357", "public_transport": "platform"}}, {"type": "node", "id": 6237271461, "lat": 31.1620743, "lon": 121.0926028, "tags": {"bus": "yes", "highway": "bus_stop", "name": "\u76c8\u6e2f\u8def\u6f15\u76c8\u8def", "name:zh": "\u76c8\u6e2f\u8def\u6f15\u76c8\u8def", "public_transport": "platform"}}, {"type": "node", "id": 6237271463, "lat": 31.1676686, "lon": 121.0922366, "tags": {"bus": "yes", "highway": "bus_stop", "name": "\u6e05\u6cb3\u6e7e\u8def\u6f15\u76c8\u8def\u5357", "name:zh": "\u6e05\u6cb3\u6e7e\u8def\u6f15\u76c8\u8def\u5357", "public_transport": "platform"}}, {"type": "node", "id": 6237271465, "lat": 31.1675011, "lon": 121.0923895, "tags": {"bus": "yes", "highway": "bus_stop", "name": "\u6e05\u6cb3\u6e7e\u8def\u6f15\u76c8\u8def\u5357", "name:zh": "\u6e05\u6cb3\u6e7e\u8def\u6f15\u76c8\u8def\u5357", "public_transport": "platform"}}, {"type": "node", "id": 6237271466, "lat": 31.1706303, "lon": 121.0981335, "tags": {"bus": "yes", "highway": "bus_stop", "name": "\u6e05\u6cb3\u6e7e\u8def\u7af9\u76c8\u8def", "name:zh": "\u6e05\u6cb3\u6e7e\u8def\u7af9\u76c8\u8def", "public_transport": "platform"}}, {"type": "node", "id": 6237271473, "lat": 31.169383, "lon": 121.0976386, "tags": {"bus": "yes", "highway": "bus_stop", "name": "\u6e05\u6cb3\u6e7e\u8def\u7af9\u76c8\u8def", "name:zh": "\u6e05\u6cb3\u6e7e\u8def\u7af9\u76c8\u8def", "public_transport": "platform"}}, {"type": "node", "id": 6237271475, "lat": 31.1728507, "lon": 121.0903081, "tags": {"bus": "yes", "highway": "bus_stop", "name": "\u6f15\u76c8\u8def\u6e05\u6cb3\u6e7e\u8def", "name:en": "Caoying Road at Qinghewan Road", "name:zh": "\u6f15\u76c8\u8def\u6e05\u6cb3\u6e7e\u8def", "public_transport": "platform"}}, {"type": "node", "id": 6237271478, "lat": 31.1736952, "lon": 121.0919027, "tags": {"bus": "yes", "highway": "bus_stop", "name": "\u6e05\u6cb3\u6e7e\u8def\u6f15\u76c8\u8def", "name:zh": "\u6e05\u6cb3\u6e7e\u8def\u6f15\u76c8\u8def", "public_transport": "platform"}}, {"type": "node", "id": 6237271479, "lat": 31.1738685, "lon": 121.0916868, "tags": {"bus": "yes", "highway": "bus_stop", "name": "\u6e05\u6cb3\u6e7e\u8def\u6f15\u76c8\u8def", "name:zh": "\u6e05\u6cb3\u6e7e\u8def\u6f15\u76c8\u8def", "public_transport": "platform"}}, {"type": "node", "id": 6237271480, "lat": 31.1605594, "lon": 121.0839614, "tags": {"bus": "yes", "highway": "bus_stop", "name": "\u76c8\u6e2f\u5ba2\u8fd0\u7ad9", "name:zh": "\u76c8\u6e2f\u5ba2\u8fd0\u7ad9", "public_transport": "platform"}}, {"type": "node", "id": 6237287506, "lat": 31.1619904, "lon": 121.0885191, "tags": {"bus": "yes", "highway": "bus_stop", "name": "\u76c8\u6e2f\u8def\u6f15\u76c8\u8def\u897f", "name:zh": "\u76c8\u6e2f\u8def\u6f15\u76c8\u8def\u897f", "public_transport": "platform"}}, {"type": "node", "id": 6237287509, "lat": 31.1639712, "lon": 121.0907869, "tags": {"bus": "yes", "highway": "bus_stop", "name": "\u6f15\u76c8\u8def\u76c8\u6e2f\u8def", "name:zh": "\u6f15\u76c8\u8def\u76c8\u6e2f\u8def", "public_transport": "platform"}}, {"type": "node", "id": 6237287511, "lat": 31.1752293, "lon": 121.0951374, "tags": {"bus": "yes", "highway": "bus_stop", "name": "\u76c8\u987a\u8def\u5d27\u6cfd\u5927\u9053", "name:zh": "\u76c8\u987a\u8def\u5d27\u6cfd\u5927\u9053", "public_transport": "platform"}}, {"type": "node", "id": 6237287520, "lat": 31.1907138, "lon": 121.0995698, "tags": {"bus": "yes", "highway": "bus_stop", "name": "\u65b0\u80dc\u8def\u5317\u9752\u516c\u8def", "name:zh": "\u65b0\u80dc\u8def\u5317\u9752\u516c\u8def", "public_transport": "platform"}}, {"type": "node", "id": 6237401060, "lat": 31.1869864, "lon": 121.1149791, "tags": {"bus": "yes", "highway": "bus_stop", "name": "\u5916\u9752\u677e\u516c\u8def\u5317\u9752\u516c\u8def", "name:zh": "\u5916\u9752\u677e\u516c\u8def\u5317\u9752\u516c\u8def", "public_transport": "platform"}}, {"type": "node", "id": 6237401062, "lat": 31.173709, "lon": 121.1171222, "tags": {"bus": "yes", "highway": "bus_stop", "name": "\u5916\u9752\u677e\u516c\u8def\u65b0\u4e1a\u8def", "name:en": "Waiqingsong Highway Xinye Road", "name:zh": "\u5916\u9752\u677e\u516c\u8def\u65b0\u4e1a\u8def", "public_transport": "platform"}}, {"type": "node", "id": 6237401331, "lat": 31.1552424, "lon": 121.1330304, "tags": {"bus": "yes", "highway": "bus_stop", "name": "\u516c\u56ed\u4e1c\u8def\u534e\u6d66\u8def", "name:zh": "\u516c\u56ed\u4e1c\u8def\u534e\u6d66\u8def", "public_transport": "platform"}}, {"type": "node", "id": 6237401332, "lat": 31.1554742, "lon": 121.1335158, "tags": {"bus": "yes", "highway": "bus_stop", "name": "\u516c\u56ed\u4e1c\u8def\u534e\u6d66\u8def", "name:zh": "\u516c\u56ed\u4e1c\u8def\u534e\u6d66\u8def", "public_transport": "platform"}}, {"type": "node", "id": 6237401465, "lat": 31.1425299, "lon": 121.12997, "tags": {"bus": "yes", "highway": "bus_stop", "name": "\u534e\u9752\u5357\u8def\u6caa\u9752\u5e73\u516c\u8def", "name:zh": "\u534e\u9752\u5357\u8def\u6caa\u9752\u5e73\u516c\u8def", "public_transport": "platform"}}, {"type": "node", "id": 6252645733, "lat": 31.2066852, "lon": 121.0968753, "tags": {"bus": "yes", "highway": "bus_stop", "name": "\u65b0\u80dc\u8def\u65b0\u91d1\u8def", "name:zh": "\u65b0\u80dc\u8def\u65b0\u91d1\u8def", "public_transport": "platform"}}, {"type": "node", "id": 6252645877, "lat": 31.199571, "lon": 121.0977945, "tags": {"bus": "yes", "highway": "bus_stop", "name": "\u65b0\u80dc\u8def\u5929\u4e00\u8def", "name:zh": "\u65b0\u80dc\u8def\u5929\u4e00\u8def", "public_transport": "platform"}}, {"type": "node", "id": 6253389820, "lat": 31.212985, "lon": 121.0962439, "tags": {"bus": "yes", "highway": "bus_stop", "name": "\u65b0\u80dc\u8def\u9999\u5927\u8def", "name:zh": "\u65b0\u80dc\u8def\u9999\u5927\u8def", "public_transport": "platform"}}, {"type": "node", "id": 6253389823, "lat": 31.1957375, "lon": 121.0988939, "tags": {"bus": "yes", "highway": "bus_stop", "name": "\u65b0\u80dc\u8def\u5929\u76c8\u8def", "name:zh": "\u65b0\u80dc\u8def\u5929\u76c8\u8def", "public_transport": "platform"}}, {"type": "node", "id": 6253389824, "lat": 31.1995036, "lon": 121.098065, "tags": {"bus": "yes", "highway": "bus_stop", "name": "\u65b0\u80dc\u8def\u5929\u4e00\u8def", "name:zh": "\u65b0\u80dc\u8def\u5929\u4e00\u8def", "public_transport": "platform"}}, {"type": "node", "id": 6253389826, "lat": 31.2064585, "lon": 121.0971075, "tags": {"bus": "yes", "highway": "bus_stop", "name": "\u65b0\u80dc\u8def\u65b0\u91d1\u8def", "name:zh": "\u65b0\u80dc\u8def\u65b0\u91d1\u8def", "public_transport": "platform"}}, {"type": "node", "id": 6253389828, "lat": 31.2118093, "lon": 121.096669, "tags": {"bus": "yes", "highway": "bus_stop", "name": "\u65b0\u80dc\u8def\u9999\u5927\u8def", "name:zh": "\u65b0\u80dc\u8def\u9999\u5927\u8def", "public_transport": "platform"}}, {"type": "node", "id": 6257302197, "lat": 31.151983, "lon": 121.1123505, "tags": {"bus": "yes", "highway": "bus_stop", "name": "\u9752\u5b89\u8def\u533b\u9662\u8def", "name:zh": "\u9752\u5b89\u8def\u533b\u9662\u8def", "public_transport": "platform"}}, {"type": "node", "id": 6278640066, "lat": 31.1937827, "lon": 121.0898092, "tags": {"bus": "yes", "highway": "bus_stop", "name": "\u6f15\u76c8\u8def\u5929\u76c8\u8def", "name:zh": "\u6f15\u76c8\u8def\u5929\u76c8\u8def", "public_transport": "platform"}}, {"type": "node", "id": 6278640067, "lat": 31.1939318, "lon": 121.0900614, "tags": {"bus": "yes", "highway": "bus_stop", "name": "\u6f15\u76c8\u8def\u5929\u76c8\u8def", "name:zh": "\u6f15\u76c8\u8def\u5929\u76c8\u8def", "public_transport": "platform"}}, {"type": "node", "id": 6278640070, "lat": 31.1899876, "lon": 121.0905039, "tags": {"bus": "yes", "highway": "bus_stop", "name": "\u6f15\u76c8\u8def\u5317\u9752\u516c\u8def", "name:zh": "\u6f15\u76c8\u8def\u5317\u9752\u516c\u8def", "public_transport": "platform"}}, {"type": "node", "id": 6278640072, "lat": 31.1909513, "lon": 121.0900345, "tags": {"bus": "yes", "highway": "bus_stop", "name": "\u6f15\u76c8\u8def\u5317\u9752\u516c\u8def", "name:zh": "\u6f15\u76c8\u8def\u5317\u9752\u516c\u8def", "public_transport": "platform"}}, {"type": "node", "id": 6305865761, "lat": 31.3775839, "lon": 121.2686098, "tags": {"bus": "yes", "highway": "bus_stop", "name": "\u5609\u622c\u516c\u8def\u590d\u534e\u8def", "name:zh": "\u5609\u622c\u516c\u8def\u590d\u534e\u8def", "public_transport": "platform"}}, {"type": "node", "id": 6478003727, "lat": 31.275212, "lon": 121.2070566, "tags": {"bus": "yes", "highway": "bus_stop", "name": "\u9ec4\u6e21\u6c7d\u8f66\u7ad9", "name:zh": "\u9ec4\u6e21\u6c7d\u8f66\u7ad9", "public_transport": "platform"}}, {"type": "node", "id": 6478003728, "lat": 31.2742583, "lon": 121.2073021, "tags": {"bus": "yes", "highway": "bus_stop", "name": "\u9ec4\u6e21\u6c7d\u8f66\u7ad9", "name:zh": "\u9ec4\u6e21\u6c7d\u8f66\u7ad9", "public_transport": "platform"}}, {"type": "node", "id": 6478003742, "lat": 31.2749461, "lon": 121.2067455, "tags": {"bus": "yes", "highway": "bus_stop", "name": "\u9ec4\u6e21\u6c7d\u8f66\u7ad9", "name:zh": "\u9ec4\u6e21\u6c7d\u8f66\u7ad9", "public_transport": "platform"}}, {"type": "node", "id": 6501692349, "lat": 31.2560946, "lon": 121.123911, "tags": {"bus": "yes", "highway": "bus_stop", "name": "\u8001\u767d\u77f3\u516c\u8def\u91d1\u5bb6\u57ed", "name:en": "Old Baishi Highway at Jin Jiayu", "name:zh": "\u8001\u767d\u77f3\u516c\u8def\u91d1\u5bb6\u57ed", "public_transport": "platform"}}, {"type": "node", "id": 6501692542, "lat": 31.254634, "lon": 121.13275, "tags": {"bus": "yes", "highway": "bus_stop", "name": "\u8001\u767d\u77f3\u516c\u8def\u5916\u9752\u677e\u516c\u8def", "name:en": "Laobaishi Highway at Waiqingsong Highway", "name:zh": "\u8001\u767d\u77f3\u516c\u8def\u5916\u9752\u677e\u516c\u8def", "public_transport": "platform"}}, {"type": "node", "id": 6501692543, "lat": 31.2375341, "lon": 121.0956959, "tags": {"bus": "yes", "highway": "bus_stop", "name": "\u65b0\u80dc\u8def\u7ea2\u65d7\u8def", "name:en": "XinSheng Road at Hongqi Road", "name:zh": "\u65b0\u80dc\u8def\u7ea2\u65d7\u8def", "public_transport": "platform"}}, {"type": "node", "id": 6501692544, "lat": 31.2517874, "lon": 121.0961378, "tags": {"bus": "yes", "highway": "bus_stop", "name": "\u65b0\u80dc\u8def\u66d9\u5149\u8def", "name:zh": "\u65b0\u80dc\u8def\u66d9\u5149\u8def", "public_transport": "platform"}}, {"type": "node", "id": 6501692545, "lat": 31.2567261, "lon": 121.1347887, "tags": {"bus": "yes", "highway": "bus_stop", "name": "\u5916\u9752\u677e\u516c\u8def\u9e64\u610f\u8def", "name:zh": "\u5916\u9752\u677e\u516c\u8def\u9e64\u610f\u8def", "public_transport": "platform"}}, {"type": "node", "id": 6501692725, "lat": 31.2571201, "lon": 121.096321, "tags": {"bus": "yes", "highway": "bus_stop", "name": "\u65b0\u80dc\u8def\u767d\u77f3\u516c\u8def", "name:en": "Xinsheng Road at Baishi Highway", "name:zh": "\u65b0\u80dc\u8def\u767d\u77f3\u516c\u8def", "public_transport": "platform"}}, {"type": "node", "id": 6501692726, "lat": 31.221317, "lon": 121.0951059, "tags": {"bus": "yes", "highway": "bus_stop", "name": "\u65b0\u80dc\u8def\u53cb\u7231\u65b0\u6751", "name:zh": "\u65b0\u80dc\u8def\u53cb\u7231\u65b0\u6751", "public_transport": "platform"}}, {"type": "node", "id": 6501692727, "lat": 31.2582862, "lon": 121.1075849, "tags": {"bus": "yes", "highway": "bus_stop", "name": "\u767d\u77f3\u516c\u8def\u54cd\u65b0\u8def", "name:en": "Baishi Highway at Xiangxin Road", "name:zh": "\u767d\u77f3\u516c\u8def\u54cd\u65b0\u8def", "public_transport": "platform"}}, {"type": "node", "id": 6513803003, "lat": 31.2325687, "lon": 121.2220126, "tags": {"bus": "yes", "highway": "bus_stop", "name": "\u65b0\u51e4\u4e2d\u8def\u534e\u5fd7\u8def", "name:zh": "\u65b0\u51e4\u4e2d\u8def\u534e\u5fd7\u8def", "public_transport": "platform"}}, {"type": "node", "id": 6513803004, "lat": 31.2400864, "lon": 121.2212978, "tags": {"bus": "yes", "highway": "bus_stop", "name": "\u65b0\u51e4\u5317\u8def\u534e\u817e\u8def", "name:zh": "\u65b0\u51e4\u5317\u8def\u534e\u817e\u8def", "public_transport": "platform"}}, {"type": "node", "id": 6513803005, "lat": 31.2432397, "lon": 121.2234691, "tags": {"alt_name": "\u534e\u65b0\u516c\u56ed", "bus": "yes", "highway": "bus_stop", "name": "\u534e\u5f3a\u8857\u65b0\u76ca\u8def", "name:zh": "\u534e\u5f3a\u8857\u65b0\u76ca\u8def", "public_transport": "platform"}}, {"type": "node", "id": 6513803008, "lat": 31.2413107, "lon": 121.2264622, "tags": {"bus": "yes", "highway": "bus_stop", "name": "\u65b0\u5e9c\u4e2d\u8def\u534e\u817e\u8def", "name:zh": "\u65b0\u5e9c\u4e2d\u8def\u534e\u817e\u8def", "public_transport": "platform"}}, {"type": "node", "id": 6513803009, "lat": 31.2433773, "lon": 121.2401605, "tags": {"alt_name": "\u9a6c\u817e\u6e7e", "bus": "yes", "highway": "bus_stop", "name": "\u7eaa\u9e64\u516c\u8def\u9a6c\u817e\u6e7e", "name:zh": "\u7eaa\u9e64\u516c\u8def\u9a6c\u817e\u6e7e", "public_transport": "platform"}}, {"type": "node", "id": 6513803010, "lat": 31.245636, "lon": 121.2482017, "tags": {"alt_name": "\u9e6b\u5c71\u6751;\u7eaa\u9e64\u516c\u8def\u65e5\u5316\u5382", "bus": "yes", "highway": "bus_stop", "name": "\u7eaa\u9e64\u516c\u8def\u9e6b\u5c71\u6751", "name:zh": "\u7eaa\u9e64\u516c\u8def\u9e6b\u5c71\u6751", "public_transport": "platform"}}, {"type": "node", "id": 6513803011, "lat": 31.2473972, "lon": 121.2551245, "tags": {"alt_name": "\u7eaa\u9e64\u516c\u8def\u8d75\u5bb6\u6751", "bus": "yes", "highway": "bus_stop", "name": "\u7eaa\u9e64\u8def\u8054\u53cb\u8def", "name:zh": "\u7eaa\u9e64\u8def\u8054\u53cb\u8def", "public_transport": "platform"}}, {"type": "node", "id": 6513803012, "lat": 31.2467345, "lon": 121.2637397, "tags": {"bus": "yes", "highway": "bus_stop", "name": "\u7eaa\u7fdf\u8def\u7eaa\u9e64\u8def", "name:zh": "\u7eaa\u7fdf\u8def\u7eaa\u9e64\u8def", "public_transport": "platform"}}, {"type": "node", "id": 6513803013, "lat": 31.2425608, "lon": 121.266363, "tags": {"bus": "yes", "highway": "bus_stop", "name": "\u7eaa\u7fdf\u8def\u7eaa\u4e2d\u8def", "name:zh": "\u7eaa\u7fdf\u8def\u7eaa\u4e2d\u8def", "public_transport": "platform"}}, {"type": "node", "id": 6513803022, "lat": 31.2399075, "lon": 121.2678891, "tags": {"bus": "yes", "highway": "bus_stop", "name": "\u7eaa\u738b", "name:zh": "\u7eaa\u738b", "public_transport": "platform"}}, {"type": "node", "id": 6513803023, "lat": 31.2357383, "lon": 121.2703009, "tags": {"bus": "yes", "highway": "bus_stop", "name": "\u7eaa\u7fdf\u8def\u7eaa\u6885\u8def", "name:zh": "\u7eaa\u7fdf\u8def\u7eaa\u6885\u8def", "public_transport": "platform"}}, {"type": "node", "id": 6513803024, "lat": 31.2303164, "lon": 121.2733662, "tags": {"bus": "yes", "highway": "bus_stop", "name": "\u7eaa\u7fdf\u8def\u7ea2\u536b\u8def", "name:zh": "\u7eaa\u7fdf\u8def\u7ea2\u536b\u8def", "public_transport": "platform"}}, {"type": "node", "id": 6513803025, "lat": 31.2210089, "lon": 121.2787762, "tags": {"bus": "yes", "highway": "bus_stop", "name": "\u6731\u5bb6\u6cfe", "name:zh": "\u6731\u5bb6\u6cfe", "public_transport": "platform"}}, {"type": "node", "id": 6513803026, "lat": 31.2134208, "lon": 121.2836042, "tags": {"bus": "yes", "highway": "bus_stop", "name": "\u7eaa\u7fdf\u8def\u5317\u9752\u516c\u8def", "name:zh": "\u7eaa\u7fdf\u8def\u5317\u9752\u516c\u8def", "public_transport": "platform"}}, {"type": "node", "id": 6513803027, "lat": 31.2116763, "lon": 121.2864433, "tags": {"bus": "yes", "highway": "bus_stop", "name": "\u7eaa\u7fdf\u8def\u4fdd\u4e50\u8def", "name:zh": "\u7eaa\u7fdf\u8def\u4fdd\u4e50\u8def", "public_transport": "platform"}}, {"type": "node", "id": 6513803028, "lat": 31.2076629, "lon": 121.2928497, "tags": {"bus": "yes", "highway": "bus_stop", "name": "\u7eaa\u7fdf\u8def\u5317\u7fdf\u8def", "name:zh": "\u7eaa\u7fdf\u8def\u5317\u7fdf\u8def", "public_transport": "platform"}}, {"type": "node", "id": 6513803029, "lat": 31.219901, "lon": 121.3055111, "tags": {"bus": "yes", "highway": "bus_stop", "name": "\u5317\u7fdf\u8def\u7533\u957f\u8def", "name:zh": "\u5317\u7fdf\u8def\u7533\u957f\u8def", "public_transport": "platform"}}, {"type": "node", "id": 6513803030, "lat": 31.2221661, "lon": 121.3113329, "tags": {"bus": "yes", "highway": "bus_stop", "name": "\u5317\u7fdf\u8def\u9648\u601d\u6865", "name:zh": "\u5317\u7fdf\u8def\u9648\u601d\u6865", "public_transport": "platform"}}, {"type": "node", "id": 6513803031, "lat": 31.2235641, "lon": 121.3160375, "tags": {"bus": "yes", "highway": "bus_stop", "name": "\u5317\u7fdf\u8def\u5357\u534e\u8857", "name:zh": "\u5317\u7fdf\u8def\u5357\u534e\u8857", "public_transport": "platform"}}, {"type": "node", "id": 6541305423, "lat": 31.1082031, "lon": 121.0438939, "tags": {"bus": "yes", "highway": "bus_stop", "name": "\u73e0\u6eaa\u8def\u6f15\u5e73\u652f\u8def", "name:zh": "\u73e0\u6eaa\u8def\u6f15\u5e73\u652f\u8def", "public_transport": "platform"}}, {"type": "node", "id": 6541322853, "lat": 31.1082778, "lon": 121.043524, "tags": {"bus": "yes", "highway": "bus_stop", "name": "\u73e0\u6eaa\u8def\u6f15\u5e73\u652f\u8def", "name:zh": "\u73e0\u6eaa\u8def\u6f15\u5e73\u652f\u8def", "public_transport": "platform"}}, {"type": "node", "id": 6541328650, "lat": 31.290143, "lon": 121.3121883, "tags": {"bus": "yes", "highway": "bus_stop", "name": "\u53e4\u7317\u56ed", "name:zh": "\u53e4\u7317\u56ed", "public_transport": "platform"}}, {"type": "node", "id": 6541328651, "lat": 31.290683, "lon": 121.3118648, "tags": {"bus": "yes", "highway": "bus_stop", "name": "\u53e4\u7317\u56ed", "name:zh": "\u53e4\u7317\u56ed", "public_transport": "platform"}}, {"type": "node", "id": 6541337551, "lat": 31.1126152, "lon": 121.0421192, "tags": {"bus": "yes", "highway": "bus_stop", "name": "\u73e0\u6eaa\u8def\u6c99\u6dc0\u4e2d\u8def", "name:zh": "\u73e0\u6eaa\u8def\u6c99\u6dc0\u4e2d\u8def", "public_transport": "platform"}}, {"type": "node", "id": 6541342010, "lat": 31.1126146, "lon": 121.0425286, "tags": {"bus": "yes", "highway": "bus_stop", "name": "\u73e0\u6eaa\u8def\u6c99\u6dc0\u4e2d\u8def", "name:zh": "\u73e0\u6eaa\u8def\u6c99\u6dc0\u4e2d\u8def", "public_transport": "platform"}}, {"type": "node", "id": 6578138208, "lat": 31.2919538, "lon": 121.1412771, "tags": {"bus": "yes", "highway": "bus_stop", "name": "\u8d5b\u683c\u7535\u5b50\u5e02\u573a", "name:zh": "\u8d5b\u683c\u7535\u5b50\u5e02\u573a", "public_transport": "platform"}}, {"type": "node", "id": 6592216133, "lat": 31.2184824, "lon": 121.1234468, "tags": {"bus": "yes", "highway": "bus_stop", "name": "\u5916\u9752\u677e\u516c\u8def\u6a2a\u6cfe", "name:zh": "\u5916\u9752\u677e\u516c\u8def\u6a2a\u6cfe", "public_transport": "platform"}}, {"type": "node", "id": 6600297972, "lat": 31.2371234, "lon": 121.0954633, "tags": {"bus": "yes", "highway": "bus_stop", "name": "\u65b0\u80dc\u8def\u7ea2\u65d7\u8def", "name:en": "XinSheng Road at Hongqi Road", "name:zh": "\u65b0\u80dc\u8def\u7ea2\u65d7\u8def", "public_transport": "platform"}}, {"type": "node", "id": 6600297976, "lat": 31.2305744, "lon": 121.0953949, "tags": {"bus": "yes", "highway": "bus_stop", "name": "\u65b0\u80dc\u8def\u80e5\u6c9f\u8def", "name:en": "Xinsheng Road at Xugou Road", "name:zh": "\u65b0\u80dc\u8def\u80e5\u6c9f\u8def", "public_transport": "platform"}}, {"type": "node", "id": 6612629384, "lat": 31.2163915, "lon": 121.0957501, "tags": {"bus": "yes", "highway": "bus_stop", "name": "\u65b0\u80dc\u8def\u65b0\u6865\u8def", "name:zh": "\u65b0\u80dc\u8def\u65b0\u6865\u8def", "public_transport": "platform"}}, {"type": "node", "id": 6612677215, "lat": 31.2301515, "lon": 121.0952174, "tags": {"bus": "yes", "highway": "bus_stop", "name": "\u65b0\u80dc\u8def\u80e5\u6c9f\u8def", "name:en": "Xinsheng Road at Xugou Road", "name:zh": "\u65b0\u80dc\u8def\u80e5\u6c9f\u8def", "public_transport": "platform"}}, {"type": "node", "id": 6612696046, "lat": 31.2162136, "lon": 121.0961026, "tags": {"bus": "yes", "highway": "bus_stop", "name": "\u65b0\u80dc\u8def\u65b0\u6865\u8def", "name:zh": "\u65b0\u80dc\u8def\u65b0\u6865\u8def", "public_transport": "platform"}}, {"type": "node", "id": 6612705080, "lat": 31.2564602, "lon": 121.1231909, "tags": {"bus": "yes", "highway": "bus_stop", "name": "\u8001\u767d\u77f3\u516c\u8def\u91d1\u5bb6\u57ed", "name:en": "Old Baishi Highway at Jin Jiayu", "name:zh": "\u8001\u767d\u77f3\u516c\u8def\u91d1\u5bb6\u57ed", "public_transport": "platform"}}, {"type": "node", "id": 6612707666, "lat": 31.2586443, "lon": 121.1072952, "tags": {"bus": "yes", "highway": "bus_stop", "name": "\u767d\u77f3\u516c\u8def\u54cd\u65b0\u8def", "name:en": "Baishi Highway at Xiangxin Road", "name:zh": "\u767d\u77f3\u516c\u8def\u54cd\u65b0\u8def", "public_transport": "platform"}}, {"type": "node", "id": 6612712358, "lat": 31.2448985, "lon": 121.0957652, "tags": {"bus": "yes", "highway": "bus_stop", "name": "\u65b0\u80dc\u8def\u828b\u697c\u6865", "name:en": "Xinsheng Road at Yulou Bridge", "name:zh": "\u65b0\u80dc\u8def\u828b\u697c\u6865", "public_transport": "platform"}}, {"type": "node", "id": 6612714868, "lat": 31.2613634, "lon": 121.1311872, "tags": {"bus": "yes", "highway": "bus_stop", "name": "\u7a0b\u9e64\u8def\u9e64\u5982\u8def", "name:zh": "\u7a0b\u9e64\u8def\u9e64\u5982\u8def", "public_transport": "platform"}}, {"type": "node", "id": 6612722534, "lat": 31.255791, "lon": 121.1294013, "tags": {"bus": "yes", "highway": "bus_stop", "name": "\u7a0b\u9e64\u8def\u8001\u767d\u77f3\u516c\u8def", "name:zh": "\u7a0b\u9e64\u8def\u8001\u767d\u77f3\u516c\u8def", "public_transport": "platform"}}, {"type": "node", "id": 6612723442, "lat": 31.259225, "lon": 121.0993204, "tags": {"bus": "yes", "highway": "bus_stop", "name": "\u767d\u77f3\u516c\u8def\u817e\u5317\u8def", "name:en": "Baishi Highway at Tengbei Road", "name:zh": "\u767d\u77f3\u516c\u8def\u817e\u5317\u8def", "public_transport": "platform"}}, {"type": "node", "id": 6612724471, "lat": 31.2616199, "lon": 121.1310161, "tags": {"bus": "yes", "highway": "bus_stop", "name": "\u7a0b\u9e64\u8def\u9e64\u5982\u8def", "name:zh": "\u7a0b\u9e64\u8def\u9e64\u5982\u8def", "public_transport": "platform"}}, {"type": "node", "id": 6612730572, "lat": 31.2567617, "lon": 121.0961495, "tags": {"bus": "yes", "highway": "bus_stop", "name": "\u65b0\u80dc\u8def\u767d\u77f3\u516c\u8def", "name:en": "Xinsheng Road at Baishi Highway", "name:zh": "\u65b0\u80dc\u8def\u767d\u77f3\u516c\u8def", "public_transport": "platform"}}, {"type": "node", "id": 6612735814, "lat": 31.2560493, "lon": 121.12973, "tags": {"bus": "yes", "highway": "bus_stop", "name": "\u7a0b\u9e64\u8def\u8001\u767d\u77f3\u516c\u8def", "name:zh": "\u7a0b\u9e64\u8def\u8001\u767d\u77f3\u516c\u8def", "public_transport": "platform"}}, {"type": "node", "id": 6612739943, "lat": 31.2579047, "lon": 121.11301, "tags": {"bus": "yes", "highway": "bus_stop", "name": "\u767d\u77f3\u516c\u8def\u817e\u65b0\u8def", "name:zh": "\u767d\u77f3\u516c\u8def\u817e\u65b0\u8def", "public_transport": "platform"}}, {"type": "node", "id": 6612872810, "lat": 31.2206327, "lon": 121.0949698, "tags": {"bus": "yes", "highway": "bus_stop", "name": "\u65b0\u80dc\u8def\u53cb\u7231\u65b0\u6751", "name:zh": "\u65b0\u80dc\u8def\u53cb\u7231\u65b0\u6751", "public_transport": "platform"}}, {"type": "node", "id": 6612874207, "lat": 31.2451246, "lon": 121.0958979, "tags": {"bus": "yes", "highway": "bus_stop", "name": "\u65b0\u80dc\u8def\u828b\u697c\u6865", "name:en": "Xinsheng Road at Yulou Bridge", "name:zh": "\u65b0\u80dc\u8def\u828b\u697c\u6865", "public_transport": "platform"}}, {"type": "node", "id": 6612874211, "lat": 31.2617085, "lon": 121.1369437, "tags": {"bus": "yes", "highway": "bus_stop", "name": "\u5916\u9752\u677e\u516c\u8def\u9e64\u7965\u8def", "name:zh": "\u5916\u9752\u677e\u516c\u8def\u9e64\u7965\u8def", "public_transport": "platform"}}, {"type": "node", "id": 6612874214, "lat": 31.2589486, "lon": 121.1016002, "tags": {"bus": "yes", "highway": "bus_stop", "name": "\u767d\u77f3\u516c\u8def\u817e\u5317\u8def", "name:en": "Baishi Highway at Tengbei Road", "name:zh": "\u767d\u77f3\u516c\u8def\u817e\u5317\u8def", "public_transport": "platform"}}, {"type": "node", "id": 6628726324, "lat": 31.2516542, "lon": 121.095973, "tags": {"bus": "yes", "highway": "bus_stop", "name": "\u65b0\u80dc\u8def\u66d9\u5149\u8def", "name:zh": "\u65b0\u80dc\u8def\u66d9\u5149\u8def", "public_transport": "platform"}}, {"type": "node", "id": 6726030531, "lat": 31.2397167, "lon": 121.26776, "tags": {"bus": "yes", "highway": "bus_stop", "name": "\u7eaa\u738b", "name:zh": "\u7eaa\u738b", "public_transport": "platform"}}, {"type": "node", "id": 6726037593, "lat": 31.2355433, "lon": 121.2701717, "tags": {"bus": "yes", "highway": "bus_stop", "name": "\u7eaa\u7fdf\u8def\u7eaa\u6885\u8def", "name:zh": "\u7eaa\u7fdf\u8def\u7eaa\u6885\u8def", "public_transport": "platform"}}, {"type": "node", "id": 6773478901, "lat": 31.1687633, "lon": 121.0908567, "tags": {"bus": "yes", "highway": "bus_stop", "name": "\u6f15\u76c8\u8def\u6e05\u6cb3\u6e7e\u8def\u5357", "name:zh": "\u6f15\u76c8\u8def\u6e05\u6cb3\u6e7e\u8def\u5357", "public_transport": "platform"}}, {"type": "node", "id": 6774633163, "lat": 31.1624713, "lon": 121.0928254, "tags": {"bus": "yes", "highway": "bus_stop", "name": "\u76c8\u6e2f\u8def\u6f15\u76c8\u8def", "name:zh": "\u76c8\u6e2f\u8def\u6f15\u76c8\u8def", "public_transport": "platform"}}, {"type": "node", "id": 6796207553, "lat": 31.2614254, "lon": 121.1355704, "tags": {"bus": "yes", "highway": "bus_stop", "name": "\u9e64\u7965\u8def\u5916\u9752\u677e\u516c\u8def", "name:zh": "\u9e64\u7965\u8def\u5916\u9752\u677e\u516c\u8def", "public_transport": "platform"}}, {"type": "node", "id": 6796207554, "lat": 31.2616065, "lon": 121.1355114, "tags": {"bus": "yes", "highway": "bus_stop", "name": "\u9e64\u7965\u8def\u5916\u9752\u677e\u516c\u8def", "name:zh": "\u9e64\u7965\u8def\u5916\u9752\u677e\u516c\u8def", "public_transport": "platform"}}, {"type": "node", "id": 6997787665, "lat": 31.1369025, "lon": 121.2247041, "tags": {"bus": "yes", "highway": "bus_stop", "name": "\u5609\u677e\u4e2d\u8def\u4e1a\u714c\u8def", "name:zh": "\u5609\u677e\u4e2d\u8def\u4e1a\u714c\u8def", "public_transport": "platform"}}, {"type": "node", "id": 6997793022, "lat": 31.1224658, "lon": 121.2221577, "tags": {"bus": "yes", "highway": "bus_stop", "name": "\u5609\u677e\u4e2d\u8def\u4e1a\u6587\u8def", "name:zh": "\u5609\u677e\u4e2d\u8def\u4e1a\u6587\u8def", "public_transport": "platform"}}, {"type": "node", "id": 6997797993, "lat": 31.1439819, "lon": 121.2250671, "tags": {"bus": "yes", "highway": "bus_stop", "name": "\u5609\u677e\u4e2d\u8def\u4e1a\u8f89\u8def", "name:zh": "\u5609\u677e\u4e2d\u8def\u4e1a\u8f89\u8def", "public_transport": "platform"}}, {"type": "node", "id": 7000647216, "lat": 31.214158, "lon": 121.2699389, "tags": {"bus": "yes", "highway": "bus_stop", "name": "\u95f5\u5317\u8def\u8054\u53cb\u8def", "name:zh": "\u95f5\u5317\u8def\u8054\u53cb\u8def", "public_transport": "platform"}}, {"type": "node", "id": 7000670492, "lat": 31.1986283, "lon": 121.3092643, "tags": {"bus": "yes", "highway": "bus_stop", "name": "\u7533\u957f\u8def\u9521\u8679\u8def", "name:zh": "\u7533\u957f\u8def\u9521\u8679\u8def", "public_transport": "platform"}}, {"type": "node", "id": 7000672776, "lat": 31.0954265, "lon": 121.2889035, "tags": {"bus": "yes", "highway": "bus_stop", "name": "\u8398\u7816\u516c\u8def\u9ad8\u6280\u8def", "name:zh": "\u8398\u7816\u516c\u8def\u9ad8\u6280\u8def", "public_transport": "platform"}}, {"type": "node", "id": 7000673007, "lat": 31.0950366, "lon": 121.2848716, "tags": {"bench": "yes", "bin": "yes", "bus": "yes", "highway": "bus_stop", "name": "\u8398\u7816\u516c\u8def\u6cd7\u7816\u5357\u8def", "name:zh": "\u8398\u7816\u516c\u8def\u6cd7\u7816\u5357\u8def", "public_transport": "platform", "shelter": "yes"}}, {"type": "node", "id": 7000712832, "lat": 31.2170021, "lon": 121.3086547, "tags": {"bus": "yes", "highway": "bus_stop", "name": "\u5929\u5c71\u897f\u8def\u7533\u957f\u8def", "name:zh": "\u5929\u5c71\u897f\u8def\u7533\u957f\u8def", "public_transport": "platform"}}, {"type": "node", "id": 7037702729, "lat": 31.2300812, "lon": 121.2732285, "tags": {"bus": "yes", "highway": "bus_stop", "name": "\u7eaa\u7fdf\u8def\u7ea2\u536b\u8def", "name:zh": "\u7eaa\u7fdf\u8def\u7ea2\u536b\u8def", "public_transport": "platform"}}, {"type": "node", "id": 7180710699, "lat": 31.2923873, "lon": 121.3047794, "tags": {"bus": "yes", "highway": "bus_stop", "name": "\u4e91\u7fd4\u5bfa", "name:zh": "\u4e91\u7fd4\u5bfa", "public_transport": "platform"}}, {"type": "node", "id": 7180710700, "lat": 31.2922013, "lon": 121.3046679, "tags": {"bus": "yes", "highway": "bus_stop", "name": "\u4e91\u7fd4\u5bfa", "name:zh": "\u4e91\u7fd4\u5bfa", "public_transport": "platform"}}, {"type": "node", "id": 7180710733, "lat": 31.2893995, "lon": 121.3061469, "tags": {"bus": "yes", "highway": "bus_stop", "name": "\u5357\u7fd4\u9547", "name:zh": "\u5357\u7fd4\u9547", "public_transport": "platform"}}, {"type": "node", "id": 7180710734, "lat": 31.2894544, "lon": 121.3059639, "tags": {"bus": "yes", "highway": "bus_stop", "name": "\u5357\u7fd4\u9547", "name:zh": "\u5357\u7fd4\u9547", "public_transport": "platform"}}, {"type": "node", "id": 7180934823, "lat": 31.3842365, "lon": 121.2500617, "tags": {"bus": "yes", "highway": "bus_stop", "name": "\u535a\u4e50\u8def\u5854\u57ce\u8def", "name:zh": "\u535a\u4e50\u8def\u5854\u57ce\u8def", "public_transport": "platform"}}, {"type": "node", "id": 7180934824, "lat": 31.390005, "lon": 121.2566535, "tags": {"bus": "yes", "highway": "bus_stop", "name": "\u5609\u7f57\u516c\u8def\u5854\u57ce\u8def", "name:zh": "\u5609\u7f57\u516c\u8def\u5854\u57ce\u8def", "public_transport": "platform"}}, {"type": "node", "id": 7180934825, "lat": 31.3898193, "lon": 121.2564351, "tags": {"bus": "yes", "highway": "bus_stop", "name": "\u5609\u7f57\u516c\u8def\u5854\u57ce\u8def", "name:zh": "\u5609\u7f57\u516c\u8def\u5854\u57ce\u8def", "public_transport": "platform"}}, {"type": "node", "id": 7180934826, "lat": 31.3756802, "lon": 121.252099, "tags": {"bus": "yes", "highway": "bus_stop", "name": "\u5609\u7f57\u516c\u8def\u6caa\u5b9c\u516c\u8def", "name:zh": "\u5609\u7f57\u516c\u8def\u6caa\u5b9c\u516c\u8def", "public_transport": "platform"}}, {"type": "node", "id": 7180934827, "lat": 31.3754318, "lon": 121.2520363, "tags": {"bus": "yes", "highway": "bus_stop", "name": "\u5609\u7f57\u516c\u8def\u6caa\u5b9c\u516c\u8def", "name:zh": "\u5609\u7f57\u516c\u8def\u6caa\u5b9c\u516c\u8def", "public_transport": "platform"}}, {"type": "node", "id": 7180934828, "lat": 31.3736281, "lon": 121.2514405, "tags": {"bus": "yes", "highway": "bus_stop", "name": "\u6caa\u5b9c\u516c\u8def\u798f\u6d77\u8def", "name:zh": "\u6caa\u5b9c\u516c\u8def\u798f\u6d77\u8def", "public_transport": "platform"}}, {"type": "node", "id": 7180934829, "lat": 31.3741259, "lon": 121.251351, "tags": {"bus": "yes", "highway": "bus_stop", "name": "\u6caa\u5b9c\u516c\u8def\u798f\u6d77\u8def", "name:zh": "\u6caa\u5b9c\u516c\u8def\u798f\u6d77\u8def", "public_transport": "platform"}}, {"type": "node", "id": 7180934830, "lat": 31.3323916, "lon": 121.2801429, "tags": {"bus": "yes", "highway": "bus_stop", "name": "\u6caa\u5b9c\u516c\u8def\u5b9d\u5b89\u516c\u8def", "name:zh": "\u6caa\u5b9c\u516c\u8def\u5b9d\u5b89\u516c\u8def", "public_transport": "platform"}}, {"type": "node", "id": 7183697135, "lat": 31.2990186, "lon": 121.2518211, "tags": {"bus": "yes", "highway": "bus_stop", "name": "\u548c\u88d5\u8def\u91d1\u660c\u897f\u8def", "name:zh": "\u548c\u88d5\u8def\u91d1\u660c\u897f\u8def", "public_transport": "platform"}}, {"type": "node", "id": 7183893871, "lat": 31.3317708, "lon": 121.2809199, "tags": {"bus": "yes", "highway": "bus_stop", "name": "\u6caa\u5b9c\u516c\u8def\u5b9d\u5b89\u516c\u8def", "name:zh": "\u6caa\u5b9c\u516c\u8def\u5b9d\u5b89\u516c\u8def", "public_transport": "platform"}}, {"type": "node", "id": 7184149871, "lat": 31.2936397, "lon": 121.2997361, "tags": {"bus": "yes", "highway": "bus_stop", "name": "\u6caa\u5b9c\u516c\u8def\u5fb7\u534e\u8def", "name:zh": "\u6caa\u5b9c\u516c\u8def\u5fb7\u534e\u8def", "public_transport": "platform"}}, {"type": "node", "id": 7184149872, "lat": 31.2918624, "lon": 121.2997742, "tags": {"bus": "yes", "highway": "bus_stop", "name": "\u6caa\u5b9c\u516c\u8def\u5fb7\u534e\u8def", "name:zh": "\u6caa\u5b9c\u516c\u8def\u5fb7\u534e\u8def", "public_transport": "platform"}}, {"type": "node", "id": 7184149873, "lat": 31.2981855, "lon": 121.2980971, "tags": {"bus": "yes", "highway": "bus_stop", "name": "\u6caa\u5b9c\u516c\u8def\u88d5\u4e30\u8def", "name:zh": "\u6caa\u5b9c\u516c\u8def\u88d5\u4e30\u8def", "public_transport": "platform"}}, {"type": "node", "id": 7184149874, "lat": 31.2989432, "lon": 121.2973611, "tags": {"bus": "yes", "highway": "bus_stop", "name": "\u6caa\u5b9c\u516c\u8def\u88d5\u4e30\u8def", "name:zh": "\u6caa\u5b9c\u516c\u8def\u88d5\u4e30\u8def", "public_transport": "platform"}}, {"type": "node", "id": 7184149875, "lat": 31.3048419, "lon": 121.2958419, "tags": {"bus": "yes", "highway": "bus_stop", "name": "\u6caa\u5b9c\u516c\u8def\u9648\u7fd4\u516c\u8def", "name:zh": "\u6caa\u5b9c\u516c\u8def\u9648\u7fd4\u516c\u8def", "public_transport": "platform"}}, {"type": "node", "id": 7184149876, "lat": 31.3066224, "lon": 121.2952136, "tags": {"bus": "yes", "highway": "bus_stop", "name": "\u6caa\u5b9c\u516c\u8def\u9648\u7fd4\u516c\u8def", "name:zh": "\u6caa\u5b9c\u516c\u8def\u9648\u7fd4\u516c\u8def", "public_transport": "platform"}}, {"type": "node", "id": 7184153644, "lat": 31.3101134, "lon": 121.2922704, "tags": {"bus": "yes", "highway": "bus_stop", "name": "\u5927\u6865\u5934", "name:zh": "\u5927\u6865\u5934", "public_transport": "platform"}}, {"type": "node", "id": 7184153645, "lat": 31.3118609, "lon": 121.2918525, "tags": {"bus": "yes", "highway": "bus_stop", "name": "\u5927\u6865\u5934", "name:zh": "\u5927\u6865\u5934", "public_transport": "platform"}}, {"type": "node", "id": 7184153646, "lat": 31.3248852, "lon": 121.2841185, "tags": {"bus": "yes", "highway": "bus_stop", "name": "\u6caa\u5b9c\u516c\u8def\u4e9a\u94a2\u8def", "name:zh": "\u6caa\u5b9c\u516c\u8def\u4e9a\u94a2\u8def", "public_transport": "platform"}}, {"type": "node", "id": 7184153647, "lat": 31.3246374, "lon": 121.2845705, "tags": {"bus": "yes", "highway": "bus_stop", "name": "\u6caa\u5b9c\u516c\u8def\u4e9a\u94a2\u8def", "name:zh": "\u6caa\u5b9c\u516c\u8def\u4e9a\u94a2\u8def", "public_transport": "platform"}}, {"type": "node", "id": 7184153663, "lat": 31.3370626, "lon": 121.2777466, "tags": {"bus": "yes", "highway": "bus_stop", "name": "\u9a6c\u9646\u9547", "name:zh": "\u9a6c\u9646\u9547", "public_transport": "platform"}}, {"type": "node", "id": 7184153664, "lat": 31.3374603, "lon": 121.2773266, "tags": {"bus": "yes", "highway": "bus_stop", "name": "\u9a6c\u9646\u9547", "name:zh": "\u9a6c\u9646\u9547", "public_transport": "platform"}}, {"type": "node", "id": 7184153665, "lat": 31.3467906, "lon": 121.2725275, "tags": {"bus": "yes", "highway": "bus_stop", "name": "\u6caa\u5b9c\u516c\u8def\u5e0c\u671b\u8def", "name:zh": "\u6caa\u5b9c\u516c\u8def\u5e0c\u671b\u8def", "public_transport": "platform"}}, {"type": "node", "id": 7184153666, "lat": 31.3452079, "lon": 121.273162, "tags": {"bus": "yes", "highway": "bus_stop", "name": "\u6caa\u5b9c\u516c\u8def\u5e0c\u671b\u8def", "name:zh": "\u6caa\u5b9c\u516c\u8def\u5e0c\u671b\u8def", "public_transport": "platform"}}, {"type": "node", "id": 7184153677, "lat": 31.3584273, "lon": 121.2628579, "tags": {"bus": "yes", "highway": "bus_stop", "name": "\u6caa\u5b9c\u516c\u8def\u767d\u94f6\u8def", "name:zh": "\u6caa\u5b9c\u516c\u8def\u767d\u94f6\u8def", "public_transport": "platform"}}, {"type": "node", "id": 7184153678, "lat": 31.3588963, "lon": 121.2621802, "tags": {"bus": "yes", "highway": "bus_stop", "name": "\u6caa\u5b9c\u516c\u8def\u767d\u94f6\u8def", "name:zh": "\u6caa\u5b9c\u516c\u8def\u767d\u94f6\u8def", "public_transport": "platform"}}, {"type": "node", "id": 7184153679, "lat": 31.3621112, "lon": 121.260306, "tags": {"bus": "yes", "highway": "bus_stop", "name": "\u6caa\u5b9c\u516c\u8def\u6d2a\u5fb7\u8def", "name:zh": "\u6caa\u5b9c\u516c\u8def\u6d2a\u5fb7\u8def", "public_transport": "platform"}}, {"type": "node", "id": 7184153680, "lat": 31.3629214, "lon": 121.2593781, "tags": {"bus": "yes", "highway": "bus_stop", "name": "\u6caa\u5b9c\u516c\u8def\u6d2a\u5fb7\u8def", "name:zh": "\u6caa\u5b9c\u516c\u8def\u6d2a\u5fb7\u8def", "public_transport": "platform"}}, {"type": "node", "id": 7184153681, "lat": 31.3954157, "lon": 121.2501262, "tags": {"bus": "yes", "highway": "bus_stop", "name": "\u83ca\u56ed", "name:zh": "\u83ca\u56ed", "public_transport": "platform"}}, {"type": "node", "id": 7184153682, "lat": 31.3951452, "lon": 121.2505072, "tags": {"bus": "yes", "highway": "bus_stop", "name": "\u83ca\u56ed", "name:zh": "\u83ca\u56ed", "public_transport": "platform"}}, {"type": "node", "id": 7184153683, "lat": 31.3957687, "lon": 121.2418885, "tags": {"bus": "yes", "highway": "bus_stop", "name": "\u73af\u57ce\u8def\u5317\u5927\u8857", "name:zh": "\u73af\u57ce\u8def\u5317\u5927\u8857", "public_transport": "platform"}}, {"type": "node", "id": 7184153684, "lat": 31.3955353, "lon": 121.2418619, "tags": {"bus": "yes", "highway": "bus_stop", "name": "\u73af\u57ce\u8def\u5317\u5927\u8857", "name:zh": "\u73af\u57ce\u8def\u5317\u5927\u8857", "public_transport": "platform"}}, {"type": "node", "id": 7184153685, "lat": 31.4024768, "lon": 121.236149, "tags": {"bus": "yes", "highway": "bus_stop", "name": "\u7687\u5e86", "name:zh": "\u7687\u5e86", "public_transport": "platform"}}, {"type": "node", "id": 7184153686, "lat": 31.4023915, "lon": 121.2359557, "tags": {"bus": "yes", "highway": "bus_stop", "name": "\u7687\u5e86", "name:zh": "\u7687\u5e86", "public_transport": "platform"}}, {"type": "node", "id": 7184153687, "lat": 31.419614, "lon": 121.222009, "tags": {"bus": "yes", "highway": "bus_stop", "name": "\u90b5\u5b85", "name:zh": "\u90b5\u5b85", "public_transport": "platform"}}, {"type": "node", "id": 7184153688, "lat": 31.419464, "lon": 121.2219698, "tags": {"bus": "yes", "highway": "bus_stop", "name": "\u90b5\u5b85", "name:zh": "\u90b5\u5b85", "public_transport": "platform"}}, {"type": "node", "id": 7184153689, "lat": 31.4281854, "lon": 121.2099084, "tags": {"bus": "yes", "highway": "bus_stop", "name": "\u5609\u5510\u516c\u8def\u5a04\u6731\u516c\u8def", "name:zh": "\u5609\u5510\u516c\u8def\u5a04\u6731\u516c\u8def", "public_transport": "platform"}}, {"type": "node", "id": 7184153690, "lat": 31.4283703, "lon": 121.2094219, "tags": {"bus": "yes", "highway": "bus_stop", "name": "\u5609\u5510\u516c\u8def\u5a04\u6731\u516c\u8def", "name:zh": "\u5609\u5510\u516c\u8def\u5a04\u6731\u516c\u8def", "public_transport": "platform"}}, {"type": "node", "id": 7184153696, "lat": 31.4350095, "lon": 121.2094002, "tags": {"bus": "yes", "highway": "bus_stop", "name": "\u5a04\u5858", "name:zh": "\u5a04\u5858", "public_transport": "platform"}}, {"type": "node", "id": 7184153697, "lat": 31.4353059, "lon": 121.209393, "tags": {"bus": "yes", "highway": "bus_stop", "name": "\u5a04\u5858", "name:zh": "\u5a04\u5858", "public_transport": "platform"}}, {"type": "node", "id": 7184153698, "lat": 31.4443414, "lon": 121.2168718, "tags": {"bus": "yes", "highway": "bus_stop", "name": "\u6b27\u5bb6\u6865", "name:zh": "\u6b27\u5bb6\u6865", "public_transport": "platform"}}, {"type": "node", "id": 7184153699, "lat": 31.4444544, "lon": 121.2167537, "tags": {"bus": "yes", "highway": "bus_stop", "name": "\u6b27\u5bb6\u6865", "name:zh": "\u6b27\u5bb6\u6865", "public_transport": "platform"}}, {"type": "node", "id": 7184153700, "lat": 31.4518107, "lon": 121.2212758, "tags": {"bus": "yes", "highway": "bus_stop", "name": "\u67cf\u5bb6\u6865", "name:zh": "\u67cf\u5bb6\u6865", "public_transport": "platform"}}, {"type": "node", "id": 7184153701, "lat": 31.4518587, "lon": 121.22111, "tags": {"bus": "yes", "highway": "bus_stop", "name": "\u67cf\u5bb6\u6865", "name:zh": "\u67cf\u5bb6\u6865", "public_transport": "platform"}}, {"type": "node", "id": 7184153707, "lat": 31.4569739, "lon": 121.2294949, "tags": {"bus": "yes", "highway": "bus_stop", "name": "\u6cb9\u8f66\u6865", "name:zh": "\u6cb9\u8f66\u6865", "public_transport": "platform"}}, {"type": "node", "id": 7184153708, "lat": 31.4571776, "lon": 121.2294113, "tags": {"bus": "yes", "highway": "bus_stop", "name": "\u6cb9\u8f66\u6865", "name:zh": "\u6cb9\u8f66\u6865", "public_transport": "platform"}}, {"type": "node", "id": 7184153714, "lat": 31.462918, "lon": 121.2358192, "tags": {"bus": "yes", "highway": "bus_stop", "name": "\u5609\u5510\u516c\u8def\u5609\u884c\u516c\u8def", "name:zh": "\u5609\u5510\u516c\u8def\u5609\u884c\u516c\u8def", "public_transport": "platform"}}, {"type": "node", "id": 7184153715, "lat": 31.4631304, "lon": 121.235889, "tags": {"bus": "yes", "highway": "bus_stop", "name": "\u5609\u5510\u516c\u8def\u5609\u884c\u516c\u8def", "name:zh": "\u5609\u5510\u516c\u8def\u5609\u884c\u516c\u8def", "public_transport": "platform"}}, {"type": "node", "id": 7184153716, "lat": 31.4669031, "lon": 121.234638, "tags": {"bus": "yes", "highway": "bus_stop", "name": "\u5510\u884c\u9547", "name:zh": "\u5510\u884c\u9547", "public_transport": "platform"}}, {"type": "node", "id": 7184153717, "lat": 31.4662459, "lon": 121.2351872, "tags": {"bus": "yes", "highway": "bus_stop", "name": "\u5510\u884c\u9547", "name:zh": "\u5510\u884c\u9547", "public_transport": "platform"}}, {"type": "node", "id": 7184153718, "lat": 31.4698202, "lon": 121.2378581, "tags": {"bus": "yes", "highway": "bus_stop", "name": "\u6768\u6cc9\u6865", "name:zh": "\u6768\u6cc9\u6865", "public_transport": "platform"}}, {"type": "node", "id": 7184153719, "lat": 31.4699943, "lon": 121.2378607, "tags": {"bus": "yes", "highway": "bus_stop", "name": "\u6768\u6cc9\u6865", "name:zh": "\u6768\u6cc9\u6865", "public_transport": "platform"}}, {"type": "node", "id": 7227290828, "lat": 31.2604103, "lon": 121.1849347, "tags": {"bus": "yes", "highway": "bus_stop", "name": "\u5b89\u667a\u8def\u9093\u5bb6\u89d2\u6751", "name:zh": "\u5b89\u667a\u8def\u9093\u5bb6\u89d2\u6751", "public_transport": "platform"}}, {"type": "node", "id": 7227290829, "lat": 31.2620894, "lon": 121.1755884, "tags": {"bus": "yes", "highway": "bus_stop", "name": "\u9f9a\u95f5\u6751", "name:zh": "\u9f9a\u95f5\u6751", "public_transport": "platform"}}, {"type": "node", "id": 7371080940, "lat": 31.3456885, "lon": 121.1905047, "tags": {"bus": "yes", "highway": "bus_stop", "name": "\u94b1\u5bb6\u5b85", "name:zh": "\u94b1\u5bb6\u5b85", "public_transport": "platform"}}, {"type": "node", "id": 7371080942, "lat": 31.3448123, "lon": 121.1909339, "tags": {"bus": "yes", "highway": "bus_stop", "name": "\u94b1\u5bb6\u5b85", "name:zh": "\u94b1\u5bb6\u5b85", "public_transport": "platform"}}, {"type": "node", "id": 7371090480, "lat": 31.35143, "lon": 121.173517, "tags": {"bus": "yes", "highway": "bus_stop", "name": "\u767e\u5b89\u516c\u8def\u6052\u6d9b\u8def", "name:zh": "\u767e\u5b89\u516c\u8def\u6052\u6d9b\u8def", "public_transport": "platform"}}, {"type": "node", "id": 7371090482, "lat": 31.3472988, "lon": 121.1768174, "tags": {"bus": "yes", "highway": "bus_stop", "name": "\u5e99\u6cfe\u6865", "name:zh": "\u5e99\u6cfe\u6865", "public_transport": "platform"}}, {"type": "node", "id": 7371095123, "lat": 31.3231725, "lon": 121.145229, "tags": {"bus": "yes", "highway": "bus_stop", "name": "\u4e5d\u53f7\u6865", "name:zh": "\u4e5d\u53f7\u6865", "public_transport": "platform"}}, {"type": "node", "id": 7371095124, "lat": 31.3236697, "lon": 121.1462912, "tags": {"bus": "yes", "highway": "bus_stop", "name": "\u4e5d\u53f7\u6865", "name:zh": "\u4e5d\u53f7\u6865", "public_transport": "platform"}}, {"type": "node", "id": 7371095809, "lat": 31.3356087, "lon": 121.1660175, "tags": {"bus": "yes", "highway": "bus_stop", "name": "\u4e94\u53f7\u6865", "name:zh": "\u4e94\u53f7\u6865", "public_transport": "platform"}}, {"type": "node", "id": 7371095811, "lat": 31.3351964, "lon": 121.1656608, "tags": {"bus": "yes", "highway": "bus_stop", "name": "\u4e94\u53f7\u6865", "name:zh": "\u4e94\u53f7\u6865", "public_transport": "platform"}}, {"type": "node", "id": 7371095814, "lat": 31.3468865, "lon": 121.1680225, "tags": {"bus": "yes", "highway": "bus_stop", "name": "\u4e09\u53f7\u6865", "name:zh": "\u4e09\u53f7\u6865", "public_transport": "platform"}}, {"type": "node", "id": 7371095815, "lat": 31.347182, "lon": 121.1683443, "tags": {"bus": "yes", "highway": "bus_stop", "name": "\u4e09\u53f7\u6865", "name:zh": "\u4e09\u53f7\u6865", "public_transport": "platform"}}, {"type": "node", "id": 7371095818, "lat": 31.3293622, "lon": 121.1539905, "tags": {"bus": "yes", "highway": "bus_stop", "name": "\u4e03\u53f7\u6865", "name:zh": "\u4e03\u53f7\u6865", "public_transport": "platform"}}, {"type": "node", "id": 7371095819, "lat": 31.3288501, "lon": 121.1529082, "tags": {"bus": "yes", "highway": "bus_stop", "name": "\u4e03\u53f7\u6865", "name:zh": "\u4e03\u53f7\u6865", "public_transport": "platform"}}, {"type": "node", "id": 7518355109, "lat": 31.2642461, "lon": 121.2129909, "tags": {"bus": "yes", "highway": "bus_stop", "name": "\u535a\u56ed\u8def\u7eff\u82d1\u5357\u8def", "name:zh": "\u535a\u56ed\u8def\u7eff\u82d1\u5357\u8def", "public_transport": "platform"}}, {"type": "node", "id": 7518355110, "lat": 31.2669632, "lon": 121.2129196, "tags": {"bus": "yes", "highway": "bus_stop", "name": "\u8bb8\u5bb6\u6751", "name:zh": "\u8bb8\u5bb6\u6751", "public_transport": "platform"}}, {"type": "node", "id": 7518355111, "lat": 31.2694981, "lon": 121.2107725, "tags": {"bus": "yes", "highway": "bus_stop", "name": "\u7eff\u82d1\u8def\u65b0\u9ec4\u8def", "name:zh": "\u7eff\u82d1\u8def\u65b0\u9ec4\u8def", "public_transport": "platform"}}, {"type": "node", "id": 7544579467, "lat": 31.2019447, "lon": 121.2160836, "tags": {"bus": "yes", "highway": "bus_stop", "name": "\u5609\u677e\u4e2d\u8def\u51e4\u4e2d\u8def", "name:zh": "\u5609\u677e\u4e2d\u8def\u51e4\u4e2d\u8def", "public_transport": "platform"}}, {"type": "node", "id": 7544579468, "lat": 31.2387947, "lon": 121.2110397, "tags": {"bus": "yes", "highway": "bus_stop", "name": "\u5609\u677e\u4e2d\u8def\u534e\u817e\u516c\u8def", "name:zh": "\u5609\u677e\u4e2d\u8def\u534e\u817e\u516c\u8def", "public_transport": "platform"}}, {"type": "node", "id": 7544579470, "lat": 31.2275023, "lon": 121.2126209, "tags": {"bus": "yes", "highway": "bus_stop", "name": "\u5609\u677e\u4e2d\u8def\u534e\u536b\u8def", "name:zh": "\u5609\u677e\u4e2d\u8def\u534e\u536b\u8def", "public_transport": "platform"}}, {"type": "node", "id": 7544579472, "lat": 31.2257889, "lon": 121.2127912, "tags": {"bus": "yes", "highway": "bus_stop", "name": "\u5609\u677e\u4e2d\u8def\u534e\u536b\u8def", "name:zh": "\u5609\u677e\u4e2d\u8def\u534e\u536b\u8def", "public_transport": "platform"}}, {"type": "node", "id": 7544579474, "lat": 31.1650556, "lon": 121.2210001, "tags": {"bus": "yes", "highway": "bus_stop", "name": "\u5609\u677e\u4e2d\u8def\u76c8\u6e2f\u4e1c\u8def", "name:zh": "\u5609\u677e\u4e2d\u8def\u76c8\u6e2f\u4e1c\u8def", "public_transport": "platform"}}, {"type": "node", "id": 7544579476, "lat": 31.1564819, "lon": 121.2227556, "tags": {"bus": "yes", "highway": "bus_stop", "name": "\u5609\u677e\u4e2d\u8def\u6caa\u9752\u5e73\u516c\u8def", "name:en": "Middle Jiasong Road Huqingping Highway", "name:zh": "\u5609\u677e\u4e2d\u8def\u6caa\u9752\u5e73\u516c\u8def", "public_transport": "platform"}}, {"type": "node", "id": 7544579479, "lat": 31.1597458, "lon": 121.2217846, "tags": {"bus": "yes", "highway": "bus_stop", "name": "\u5609\u677e\u4e2d\u8def\u4f73\u5eb7\u8def", "name:zh": "\u5609\u677e\u4e2d\u8def\u4f73\u5eb7\u8def", "public_transport": "platform"}}, {"type": "node", "id": 7544939490, "lat": 31.1778672, "lon": 121.2201753, "tags": {"bus": "yes", "highway": "bus_stop", "name": "\u5609\u677e\u4e2d\u8def\u5d27\u6cfd\u5927\u9053", "name:zh": "\u5609\u677e\u4e2d\u8def\u5d27\u6cfd\u5927\u9053", "public_transport": "platform"}}, {"type": "node", "id": 7544939493, "lat": 31.1756642, "lon": 121.2199983, "tags": {"bus": "yes", "highway": "bus_stop", "name": "\u5609\u677e\u4e2d\u8def\u5d27\u6cfd\u5927\u9053", "name:zh": "\u5609\u677e\u4e2d\u8def\u5d27\u6cfd\u5927\u9053", "public_transport": "platform"}}, {"type": "node", "id": 7578154063, "lat": 31.2971449, "lon": 121.1883478, "tags": {"bus": "yes", "highway": "bus_stop", "name": "\u660c\u5409\u4e1c\u8def\u4e8e\u5510\u8def", "name:zh": "\u660c\u5409\u4e1c\u8def\u4e8e\u5510\u8def", "public_transport": "platform"}}, {"type": "node", "id": 7578155963, "lat": 31.2652313, "lon": 121.200048, "tags": {"bus": "yes", "highway": "bus_stop", "name": "\u5609\u677e\u5317\u8def\u535a\u56ed\u8def", "name:zh": "\u5609\u677e\u5317\u8def\u535a\u56ed\u8def", "public_transport": "platform"}}, {"type": "node", "id": 7578155964, "lat": 31.2667296, "lon": 121.1995746, "tags": {"bus": "yes", "highway": "bus_stop", "name": "\u5609\u677e\u5317\u8def\u535a\u56ed\u8def", "name:zh": "\u5609\u677e\u5317\u8def\u535a\u56ed\u8def", "public_transport": "platform"}}, {"type": "node", "id": 7639963556, "lat": 31.2581169, "lon": 121.2044683, "tags": {"bus": "yes", "highway": "bus_stop", "name": "\u5609\u677e\u4e2d\u8def\u866c\u6cfe\u6865", "name:zh": "\u5609\u677e\u4e2d\u8def\u866c\u6cfe\u6865", "public_transport": "platform"}}, {"type": "node", "id": 7639963558, "lat": 31.2588093, "lon": 121.2044549, "tags": {"bus": "yes", "highway": "bus_stop", "name": "\u5609\u677e\u4e2d\u8def\u866c\u6cfe\u6865", "name:zh": "\u5609\u677e\u4e2d\u8def\u866c\u6cfe\u6865", "public_transport": "platform"}}, {"type": "node", "id": 7639986236, "lat": 31.2645366, "lon": 121.2044764, "tags": {"bus": "yes", "highway": "bus_stop", "name": "\u535a\u56ed\u8def\u65b0\u9ec4\u8def", "name:zh": "\u535a\u56ed\u8def\u65b0\u9ec4\u8def", "public_transport": "platform"}}, {"type": "node", "id": 7639986237, "lat": 31.2649149, "lon": 121.2042564, "tags": {"bus": "yes", "highway": "bus_stop", "name": "\u535a\u56ed\u8def\u65b0\u9ec4\u8def", "name:zh": "\u535a\u56ed\u8def\u65b0\u9ec4\u8def", "public_transport": "platform"}}, {"type": "node", "id": 7878410276, "lat": 31.3138316, "lon": 121.1511675, "tags": {"bus": "yes", "highway": "bus_stop", "name": "\u5b89\u4ead\u897f\u7ad9", "name:zh": "\u5b89\u4ead\u897f\u7ad9", "public_transport": "platform"}}, {"type": "node", "id": 7878410277, "lat": 31.3099693, "lon": 121.1464494, "tags": {"bus": "yes", "highway": "bus_stop", "name": "\u6c81\u5bcc\u4f73\u82d1", "name:zh": "\u6c81\u5bcc\u4f73\u82d1", "public_transport": "platform"}}, {"type": "node", "id": 7880377013, "lat": 31.3158356, "lon": 121.1618265, "tags": {"bus": "yes", "highway": "bus_stop", "name": "\u58a8\u7389\u5317\u8def\u5b9d\u5b89\u516c\u8def", "name:zh": "\u58a8\u7389\u5317\u8def\u5b9d\u5b89\u516c\u8def", "public_transport": "platform"}}, {"type": "node", "id": 7880519136, "lat": 31.2965946, "lon": 121.196256, "tags": {"bus": "yes", "highway": "bus_stop", "name": "\u516c\u4ea4\u660c\u5409\u4e1c\u8def\u7ad9", "name:zh": "\u516c\u4ea4\u660c\u5409\u4e1c\u8def\u7ad9", "public_transport": "platform"}}, {"type": "node", "id": 7880519148, "lat": 31.297328, "lon": 121.1874497, "tags": {"bus": "yes", "highway": "bus_stop", "name": "\u660c\u5409\u4e1c\u8def\u4e8e\u5510\u8def", "name:zh": "\u660c\u5409\u4e1c\u8def\u4e8e\u5510\u8def", "public_transport": "platform"}}, {"type": "node", "id": 7880596401, "lat": 31.2901457, "lon": 121.1555375, "tags": {"bus": "yes", "covered": "yes", "highway": "bus_stop", "local_ref": "1", "name": "\u516c\u4ea4\u5b89\u4ead\u7ad9", "name:zh": "\u516c\u4ea4\u5b89\u4ead\u7ad9", "public_transport": "platform"}}, {"type": "node", "id": 7887407420, "lat": 31.3077498, "lon": 121.1443922, "tags": {"bus": "yes", "highway": "bus_stop", "name": "\u6c11\u4e30\u8def\u65b0\u6e90\u8def", "name:zh": "\u6c11\u4e30\u8def\u65b0\u6e90\u8def", "public_transport": "platform"}}, {"type": "node", "id": 7887407423, "lat": 31.3129752, "lon": 121.1389909, "tags": {"bus": "yes", "highway": "bus_stop", "name": "\u9e35\u9e1f\u8def\u6c11\u4e30\u8def", "name:zh": "\u9e35\u9e1f\u8def\u6c11\u4e30\u8def", "public_transport": "platform"}}, {"type": "node", "id": 7887407424, "lat": 31.3078862, "lon": 121.1442581, "tags": {"bus": "yes", "highway": "bus_stop", "name": "\u6c11\u4e30\u8def\u65b0\u6e90\u8def", "name:zh": "\u6c11\u4e30\u8def\u65b0\u6e90\u8def", "public_transport": "platform"}}, {"type": "node", "id": 7887407427, "lat": 31.3108951, "lon": 121.1342306, "tags": {"bus": "yes", "highway": "bus_stop", "name": "\u9e35\u9e1f\u8def\u5411\u9633\u8def", "name:zh": "\u9e35\u9e1f\u8def\u5411\u9633\u8def", "public_transport": "platform"}}, {"type": "node", "id": 7887407429, "lat": 31.3130569, "lon": 121.1389973, "tags": {"bus": "yes", "highway": "bus_stop", "name": "\u9e35\u9e1f\u8def\u6c11\u4e30\u8def", "name:zh": "\u9e35\u9e1f\u8def\u6c11\u4e30\u8def", "public_transport": "platform"}}, {"type": "node", "id": 7887407430, "lat": 31.3003773, "lon": 121.1523101, "tags": {"bus": "yes", "highway": "bus_stop", "name": "\u961c\u5eb7\u8def\u9759\u666e\u8def", "name:zh": "\u961c\u5eb7\u8def\u9759\u666e\u8def", "public_transport": "platform"}}, {"type": "node", "id": 7887407432, "lat": 31.2996233, "lon": 121.1588386, "tags": {"bus": "yes", "highway": "bus_stop", "name": "\u7389\u5170\u65b0\u6751", "name:zh": "\u7389\u5170\u65b0\u6751", "public_transport": "platform"}}, {"type": "node", "id": 7887407434, "lat": 31.2979938, "lon": 121.1642137, "tags": {"bus": "yes", "highway": "bus_stop", "name": "\u6d1b\u6d66\u8def\u660c\u5409\u8def", "name:zh": "\u6d1b\u6d66\u8def\u660c\u5409\u8def", "public_transport": "platform"}}, {"type": "node", "id": 7887407436, "lat": 31.303257, "lon": 121.1644417, "tags": {"bus": "yes", "highway": "bus_stop", "name": "\u548c\u9759\u8def\u6d1b\u6d66\u8def", "name:zh": "\u548c\u9759\u8def\u6d1b\u6d66\u8def", "public_transport": "platform"}}, {"type": "node", "id": 7887407439, "lat": 31.3032753, "lon": 121.1702728, "tags": {"bus": "yes", "highway": "bus_stop", "name": "\u548c\u9759\u8def\u7c73\u6cc9\u8def", "name:zh": "\u548c\u9759\u8def\u7c73\u6cc9\u8def", "public_transport": "platform"}}, {"type": "node", "id": 7887407440, "lat": 31.2999579, "lon": 121.1713886, "tags": {"bus": "yes", "highway": "bus_stop", "name": "\u7c73\u6cc9\u8def\u548c\u9759\u8def", "name:zh": "\u7c73\u6cc9\u8def\u548c\u9759\u8def", "public_transport": "platform"}}, {"type": "node", "id": 7887407442, "lat": 31.2972432, "lon": 121.1766833, "tags": {"bus": "yes", "highway": "bus_stop", "name": "\u660c\u5409\u8def\u5854\u5c71\u8def", "name:zh": "\u660c\u5409\u8def\u5854\u5c71\u8def", "public_transport": "platform"}}, {"type": "node", "id": 7887407444, "lat": 31.297226, "lon": 121.1723864, "tags": {"bus": "yes", "highway": "bus_stop", "name": "\u660c\u5409\u8def\u7c73\u6cc9\u8def", "name:zh": "\u660c\u5409\u8def\u7c73\u6cc9\u8def", "public_transport": "platform"}}, {"type": "node", "id": 7887407445, "lat": 31.2972638, "lon": 121.1815542, "tags": {"bus": "yes", "highway": "bus_stop", "name": "\u660c\u5409\u8def\u4e8e\u7530\u8def", "name:zh": "\u660c\u5409\u8def\u4e8e\u7530\u8def", "public_transport": "platform"}}, {"type": "node", "id": 7887407448, "lat": 31.2971309, "lon": 121.1771768, "tags": {"bus": "yes", "highway": "bus_stop", "name": "\u660c\u5409\u8def\u5854\u5c71\u8def", "name:zh": "\u660c\u5409\u8def\u5854\u5c71\u8def", "public_transport": "platform"}}, {"type": "node", "id": 7887407449, "lat": 31.2970667, "lon": 121.183468, "tags": {"bus": "yes", "highway": "bus_stop", "name": "\u660c\u5409\u8def\u4e8e\u7530\u8def", "name:zh": "\u660c\u5409\u8def\u4e8e\u7530\u8def", "public_transport": "platform"}}, {"type": "node", "id": 7887407451, "lat": 31.2970851, "lon": 121.1724776, "tags": {"bus": "yes", "highway": "bus_stop", "name": "\u660c\u5409\u8def\u7c73\u6cc9\u8def", "name:zh": "\u660c\u5409\u8def\u7c73\u6cc9\u8def", "public_transport": "platform"}}, {"type": "node", "id": 7887407453, "lat": 31.2998766, "lon": 121.1711848, "tags": {"bus": "yes", "highway": "bus_stop", "name": "\u7c73\u6cc9\u8def\u548c\u9759\u8def", "name:zh": "\u7c73\u6cc9\u8def\u548c\u9759\u8def", "public_transport": "platform"}}, {"type": "node", "id": 7887407456, "lat": 31.3031286, "lon": 121.1699885, "tags": {"bus": "yes", "highway": "bus_stop", "name": "\u548c\u9759\u8def\u7c73\u6cc9\u8def", "name:zh": "\u548c\u9759\u8def\u7c73\u6cc9\u8def", "public_transport": "platform"}}, {"type": "node", "id": 7887407458, "lat": 31.303108, "lon": 121.1642298, "tags": {"bus": "yes", "highway": "bus_stop", "name": "\u548c\u9759\u8def\u6d1b\u6d66\u8def", "name:zh": "\u548c\u9759\u8def\u6d1b\u6d66\u8def", "public_transport": "platform"}}, {"type": "node", "id": 7887407459, "lat": 31.2978219, "lon": 121.1644511, "tags": {"bus": "yes", "highway": "bus_stop", "name": "\u6d1b\u6d66\u8def\u660c\u5409\u8def", "name:zh": "\u6d1b\u6d66\u8def\u660c\u5409\u8def", "public_transport": "platform"}}, {"type": "node", "id": 7887407461, "lat": 31.2993758, "lon": 121.1585757, "tags": {"bus": "yes", "highway": "bus_stop", "name": "\u7389\u5170\u65b0\u6751", "name:zh": "\u7389\u5170\u65b0\u6751", "public_transport": "platform"}}, {"type": "node", "id": 7887407463, "lat": 31.3002295, "lon": 121.1519118, "tags": {"bus": "yes", "highway": "bus_stop", "name": "\u961c\u5eb7\u8def\u9759\u666e\u8def", "name:zh": "\u961c\u5eb7\u8def\u9759\u666e\u8def", "public_transport": "platform"}}, {"type": "node", "id": 7890655989, "lat": 31.2928362, "lon": 121.1597985, "tags": {"bus": "yes", "highway": "bus_stop", "name": "\u5b89\u4ead\u6c7d\u8f66\u7ad9", "name:zh": "\u5b89\u4ead\u6c7d\u8f66\u7ad9", "public_transport": "platform"}}, {"type": "node", "id": 7893504455, "lat": 31.2547738, "lon": 121.132797, "tags": {"bus": "yes", "highway": "bus_stop", "name": "\u8001\u767d\u77f3\u516c\u8def\u5916\u9752\u677e\u516c\u8def", "name:en": "Laobaishi Highway at Waiqingsong Highway", "name:zh": "\u8001\u767d\u77f3\u516c\u8def\u5916\u9752\u677e\u516c\u8def", "public_transport": "platform"}}, {"type": "node", "id": 7893504458, "lat": 31.2559386, "lon": 121.1228044, "tags": {"bus": "yes", "highway": "bus_stop", "name": "\u767d\u9e64\u6c7d\u8f66\u7ad9", "name:zh": "\u767d\u9e64\u6c7d\u8f66\u7ad9", "public_transport": "platform"}}, {"type": "node", "id": 7902740214, "lat": 31.2633651, "lon": 121.2771052, "tags": {"bus": "yes", "highway": "bus_stop", "name": "\u535a\u56ed\u8def\u7fd4\u6c5f\u516c\u8def", "name:zh": "\u535a\u56ed\u8def\u7fd4\u6c5f\u516c\u8def", "public_transport": "platform"}}, {"type": "node", "id": 7902740215, "lat": 31.264199, "lon": 121.2764662, "tags": {"bus": "yes", "highway": "bus_stop", "name": "\u535a\u56ed\u8def\u7fd4\u6c5f\u516c\u8def", "name:zh": "\u535a\u56ed\u8def\u7fd4\u6c5f\u516c\u8def", "public_transport": "platform"}}, {"type": "node", "id": 7902740217, "lat": 31.2591486, "lon": 121.2799939, "tags": {"bus": "yes", "highway": "bus_stop", "name": "\u89e3\u653e\u5c9b\u4e1c\u73af\u8def", "name:zh": "\u89e3\u653e\u5c9b\u4e1c\u73af\u8def", "public_transport": "platform"}}, {"type": "node", "id": 7902740218, "lat": 31.2584998, "lon": 121.2800932, "tags": {"bus": "yes", "highway": "bus_stop", "name": "\u89e3\u653e\u5c9b\u4e1c\u73af\u8def", "name:zh": "\u89e3\u653e\u5c9b\u4e1c\u73af\u8def", "public_transport": "platform"}}, {"type": "node", "id": 7902740221, "lat": 31.2523845, "lon": 121.2814142, "tags": {"bus": "yes", "highway": "bus_stop", "name": "\u589e\u5efa\u6751", "name:zh": "\u589e\u5efa\u6751", "public_transport": "platform"}}, {"type": "node", "id": 7902740223, "lat": 31.2515189, "lon": 121.2816556, "tags": {"bus": "yes", "highway": "bus_stop", "name": "\u589e\u5efa\u6751", "name:zh": "\u589e\u5efa\u6751", "public_transport": "platform"}}, {"type": "node", "id": 7902740224, "lat": 31.2462127, "lon": 121.285805, "tags": {"bus": "yes", "highway": "bus_stop", "name": "\u535a\u56ed\u8def\u91d1\u6c99\u6c5f\u897f\u8def", "public_transport": "platform"}}, {"type": "node", "id": 7902740226, "lat": 31.245581, "lon": 121.2857755, "tags": {"bus": "yes", "highway": "bus_stop", "name": "\u535a\u56ed\u8def\u91d1\u6c99\u6c5f\u897f\u8def", "public_transport": "platform"}}, {"type": "node", "id": 7902740229, "lat": 31.2429312, "lon": 121.3063695, "tags": {"bus": "yes", "highway": "bus_stop", "name": "\u91d1\u6c99\u6c5f\u897f\u8def\u91d1\u8000\u8def", "name:zh": "\u91d1\u6c99\u6c5f\u897f\u8def\u91d1\u8000\u8def", "public_transport": "platform"}}, {"type": "node", "id": 7902740231, "lat": 31.2431502, "lon": 121.3065907, "tags": {"bus": "yes", "highway": "bus_stop", "name": "\u91d1\u6c99\u6c5f\u897f\u8def\u91d1\u8000\u8def", "name:zh": "\u91d1\u6c99\u6c5f\u897f\u8def\u91d1\u8000\u8def", "public_transport": "platform"}}, {"type": "node", "id": 7902740233, "lat": 31.2428154, "lon": 121.3142296, "tags": {"bus": "yes", "highway": "bus_stop", "name": "\u91d1\u6c99\u6c5f\u897f\u8def\u91d1\u56ed\u4e00\u8def", "name:zh": "\u91d1\u6c99\u6c5f\u897f\u8def\u91d1\u56ed\u4e00\u8def", "public_transport": "platform"}}, {"type": "node", "id": 7902740234, "lat": 31.2430906, "lon": 121.3140311, "tags": {"bus": "yes", "highway": "bus_stop", "name": "\u91d1\u6c99\u6c5f\u897f\u8def\u91d1\u56ed\u4e00\u8def", "name:zh": "\u91d1\u6c99\u6c5f\u897f\u8def\u91d1\u56ed\u4e00\u8def", "public_transport": "platform"}}, {"type": "node", "id": 7905373044, "lat": 31.2677349, "lon": 121.232712, "tags": {"bus": "yes", "highway": "bus_stop", "name": "\u535a\u56ed\u8def\u8054\u7fa4\u8def", "name:zh": "\u535a\u56ed\u8def\u8054\u7fa4\u8def", "public_transport": "platform"}}, {"type": "node", "id": 7905373047, "lat": 31.2676661, "lon": 121.2338117, "tags": {"bus": "yes", "highway": "bus_stop", "name": "\u535a\u56ed\u8def\u8054\u7fa4\u8def", "name:zh": "\u535a\u56ed\u8def\u8054\u7fa4\u8def", "public_transport": "platform"}}, {"type": "node", "id": 7905373051, "lat": 31.264704, "lon": 121.2658077, "tags": {"bus": "yes", "highway": "bus_stop", "name": "\u535a\u56ed\u8def\u66f9\u4e30\u8def", "name:zh": "\u535a\u56ed\u8def\u66f9\u4e30\u8def", "public_transport": "platform"}}, {"type": "node", "id": 7905373052, "lat": 31.2648668, "lon": 121.2648877, "tags": {"bus": "yes", "highway": "bus_stop", "name": "\u535a\u56ed\u8def\u66f9\u4e30\u8def", "name:zh": "\u535a\u56ed\u8def\u66f9\u4e30\u8def", "public_transport": "platform"}}, {"type": "node", "id": 7905373053, "lat": 31.2642157, "lon": 121.2547302, "tags": {"bus": "yes", "highway": "bus_stop", "name": "\u65b0\u6c5f\u6751", "name:zh": "\u65b0\u6c5f\u6751", "public_transport": "platform"}}, {"type": "node", "id": 7905373054, "lat": 31.2643899, "lon": 121.2535098, "tags": {"bus": "yes", "highway": "bus_stop", "name": "\u65b0\u6c5f\u6751", "name:zh": "\u65b0\u6c5f\u6751", "public_transport": "platform"}}, {"type": "node", "id": 7905373062, "lat": 31.2649518, "lon": 121.2440521, "tags": {"bus": "yes", "highway": "bus_stop", "name": "\u8054\u897f\u6751", "name:zh": "\u8054\u897f\u6751", "public_transport": "platform"}}, {"type": "node", "id": 7905373064, "lat": 31.2642592, "lon": 121.2458749, "tags": {"bus": "yes", "highway": "bus_stop", "name": "\u8054\u897f\u6751", "name:zh": "\u8054\u897f\u6751", "public_transport": "platform"}}, {"type": "node", "id": 7908879788, "lat": 31.2640483, "lon": 121.2120536, "tags": {"bus": "yes", "highway": "bus_stop", "name": "\u535a\u56ed\u8def\u7eff\u82d1\u5357\u8def", "name:zh": "\u535a\u56ed\u8def\u7eff\u82d1\u5357\u8def", "public_transport": "platform"}}, {"type": "node", "id": 7908879790, "lat": 31.2682943, "lon": 121.2214413, "tags": {"bus": "yes", "highway": "bus_stop", "name": "\u8bb8\u5bb6\u6751", "name:zh": "\u8bb8\u5bb6\u6751", "public_transport": "platform"}}, {"type": "node", "id": 7908879791, "lat": 31.2681842, "lon": 121.2202612, "tags": {"bus": "yes", "highway": "bus_stop", "name": "\u8bb8\u5bb6\u6751", "name:zh": "\u8bb8\u5bb6\u6751", "public_transport": "platform"}}, {"type": "node", "id": 7908906506, "lat": 31.2839423, "lon": 121.1693019, "tags": {"bus": "yes", "highway": "bus_stop", "name": "\u535a\u56ed\u8def\u7c73\u6cc9\u5357\u8def", "name:zh": "\u535a\u56ed\u8def\u7c73\u6cc9\u5357\u8def", "public_transport": "platform"}}, {"type": "node", "id": 7908906509, "lat": 31.2832123, "lon": 121.1746126, "tags": {"bus": "yes", "highway": "bus_stop", "name": "\u535a\u56ed\u8def\u4e8e\u7530\u5357\u8def", "name:zh": "\u535a\u56ed\u8def\u4e8e\u7530\u5357\u8def", "public_transport": "platform"}}, {"type": "node", "id": 7928228831, "lat": 31.2848099, "lon": 121.1710399, "tags": {"bus": "yes", "highway": "bus_stop", "name": "\u7c73\u6cc9\u5357\u8def\u535a\u56ed\u8def", "name:zh": "\u7c73\u6cc9\u5357\u8def\u535a\u56ed\u8def", "public_transport": "platform"}},