{"version": 0.6, "generator": "Overpass API 0.7.62.11 87bfad18", "osm3s": {"timestamp_osm_base": "2026-05-19T03:44:46Z", "copyright": "The data included in this document is from www.openstreetmap.org. The data is made available under ODbL."}, "elements": [{"type": "node", "id": 4714975256, "lat": 31.6272361, "lon": 121.0520279, "tags": {"alt_name": "\u592a\u4ed3\u6e2f\u7ad9;\u592a\u4ed3\u6e2f\u706b\u8f66\u7ad9;Taicanggang Railway Station;Taicang Port Railway Station", "name": "\u592a\u4ed3\u6e2f", "name:en": "Taicanggang", "public_transport": "station", "railway": "station", "train": "yes"}}, {"type": "node", "id": 4714979977, "lat": 31.699229, "lon": 120.7761351, "tags": {"alt_name": "\u5e38\u719f\u7ad9;\u5e38\u719f\u706b\u8f66\u7ad9;Changshu Railway Station", "name": "\u5e38\u719f", "name:en": "Changshu", "public_transport": "station", "railway": "station", "train": "yes", "wikidata": "Q95676148"}}, {"type": "node", "id": 4714983432, "lat": 31.8193598, "lon": 120.6692114, "tags": {"alt_name": "\u5f20\u5bb6\u6e2f\u7ad9;\u5f20\u5bb6\u6e2f\u706b\u8f66\u7ad9;Zhangjiagang Railway Station", "name": "\u5f20\u5bb6\u6e2f", "name:en": "Zhangjiagang", "public_transport": "station", "railway": "station", "train": "yes", "wikidata": "Q85624347"}}, {"type": "node", "id": 8241802304, "lat": 31.699659, "lon": 120.7770861}, {"type": "node", "id": 8241802305, "lat": 31.6986389, "lon": 120.7766849}, {"type": "node", "id": 8241802308, "lat": 31.6990743, "lon": 120.7751554}, {"type": "node", "id": 8241802311, "lat": 31.7000946, "lon": 120.7755568}, {"type": "node", "id": 9778896826, "lat": 31.4806034, "lon": 120.6582658, "tags": {"construction": "station", "name": "\u7231\u683c\u8c6a\u8def", "railway": "construction", "station": "subway", "subway": "yes"}}, {"type": "node", "id": 9778896827, "lat": 31.4700538, "lon": 120.6565365, "tags": {"construction": "station", "name": "\u73cd\u73e0\u6e56\u8def", "railway": "construction", "station": "subway", "subway": "yes"}}, {"type": "node", "id": 9778896828, "lat": 31.4626533, "lon": 120.6556052, "tags": {"construction": "station", "name": "\u6e2d\u4e2d\u8def", "railway": "construction", "station": "subway", "subway": "yes"}}, {"type": "node", "id": 12604108462, "lat": 31.6564611, "lon": 120.6617041, "tags": {"name": "\u5e38\u719f\u897f", "public_transport": "station", "railway": "station", "train": "yes"}}, {"type": "node", "id": 12612402429, "lat": 31.4943155, "lon": 120.7060274, "tags": {"name": "\u9633\u6f84\u6e56\u897f", "public_transport": "station", "railway": "station", "train": "yes"}}, {"type": "node", "id": 13702294373, "lat": 31.8143874, "lon": 121.0504339, "tags": {"name": "\u901a\u6d77\u6e2f\u7ad9", "public_transport": "station", "railway": "station", "train": "yes"}}, {"type": "way", "id": 886363596, "nodes": [8241802304, 8241802305, 8241802308, 8241802311, 8241802304], "tags": {"building": "transportation", "public_transport": "station", "railway": "station", "train": "yes"}}]}