{"version": 0.6, "generator": "Overpass API 0.7.62.11 87bfad18", "osm3s": {"timestamp_osm_base": "2026-05-19T03:45:44Z", "copyright": "The data included in this document is from www.openstreetmap.org. The data is made available under ODbL."}, "elements": [{"type": "node", "id": 2483450131, "lat": 30.9489279, "lon": 119.7574627, "tags": {"name": "\u5927\u4e91", "public_transport": "station", "railway": "station", "train": "yes"}}, {"type": "node", "id": 7342299452, "lat": 30.8650941, "lon": 120.0175765, "tags": {"name": "\u6e56\u5dde", "public_transport": "station", "railway": "station", "train": "yes"}}, {"type": "node", "id": 7342323557, "lat": 30.790819, "lon": 120.0119342, "tags": {"name": "\u5999\u897f", "public_transport": "station", "railway": "station", "train": "yes"}}, {"type": "node", "id": 7342408836, "lat": 30.9927335, "lon": 119.8995539, "tags": {"alt_name": "\u957f\u5174\u5357\u7ad9;Changxing South;Changxing South Railway Station;Changxingnan Railway Station", "name": "\u957f\u5174\u5357", "name:en": "Changxingnan", "name:zh": "\u957f\u5174\u5357", "public_transport": "station", "railway": "station", "train": "yes"}}, {"type": "node", "id": 7342408837, "lat": 30.8980118, "lon": 120.001404, "tags": {"name": "\u6e56\u5dde\u897f", "public_transport": "station", "railway": "station", "train": "yes"}}, {"type": "node", "id": 8096978760, "lat": 30.9187658, "lon": 119.6668478, "tags": {"name": "\u6cd7\u5b89", "public_transport": "station", "railway": "station", "train": "yes"}}, {"type": "node", "id": 11753220638, "lat": 30.9397341, "lon": 120.1340305, "tags": {"name": "\u94f6\u5c71\u4e00\u8def", "public_transport": "station", "railway": "station", "train": "yes"}}, {"type": "node", "id": 11753220639, "lat": 30.9415627, "lon": 120.095419, "tags": {"name": "\u592a\u6e56\u8def", "public_transport": "station", "railway": "station", "train": "yes"}}, {"type": "node", "id": 11753220644, "lat": 30.945728, "lon": 120.0457614, "tags": {"name": "\u56fe\u5f71", "public_transport": "station", "railway": "station", "train": "yes"}}, {"type": "node", "id": 11753220648, "lat": 30.9790456, "lon": 120.0028186, "tags": {"name": "\u6d2a\u6865\u9547", "public_transport": "station", "railway": "station", "train": "yes"}}]}