{"version": 0.6, "generator": "Overpass API 0.7.62.11 87bfad18", "osm3s": {"timestamp_osm_base": "2026-05-19T04:17:10Z", "copyright": "The data included in this document is from www.openstreetmap.org. The data is made available under ODbL."}, "elements": [{"type": "node", "id": 1829907074, "lat": 31.2695265, "lon": 121.2103015, "tags": {"amenity": "post_office", "name": "\u9ec4\u6e21\u90ae\u653f\u652f\u5c40", "name:en": "Huangdu Post Office"}}, {"type": "node", "id": 2982390921, "lat": 31.1714437, "lon": 121.2707927, "tags": {"amenity": "post_office", "brand": "\u4e2d\u56fd\u90ae\u653f", "brand:en": "China Post", "brand:wikidata": "Q1066476", "brand:zh": "\u4e2d\u56fd\u90ae\u653f", "name": "ChinaPost -  \u4e2d\u56fd\u90ae\u653f", "name:en": "China Post", "name:zh": "\u4e2d\u56fd\u90ae\u653f"}}, {"type": "node", "id": 5953116392, "lat": 31.1525953, "lon": 121.1118297, "tags": {"amenity": "post_office"}}, {"type": "node", "id": 7545806480, "lat": 31.2235213, "lon": 121.2086946, "tags": {"amenity": "post_office", "name": "\u987a\u4e30\u901f\u8fd0(\u4e0a\u6d77\u6d66\u4e1c\u96c6\u6563\u4e2d\u5fc32)"}}, {"type": "node", "id": 8617312075, "lat": 31.2726501, "lon": 121.1678012, "tags": {"amenity": "post_office", "name": "\u5b89\u793c\u8def\u90ae\u653f\u6240", "name:en": "Anli Road Post office", "name:zh": "\u5b89\u793c\u8def\u90ae\u653f\u6240", "opening_hours": "08:30-11:30,13:00-16:00"}}, {"type": "node", "id": 9837490002, "lat": 31.3299406, "lon": 121.0707668, "tags": {"amenity": "post_office", "brand": "\u987a\u4e30\u901f\u8fd0", "brand:en": "SF Express", "brand:wikidata": "Q7390019", "brand:zh": "\u987a\u4e30\u901f\u8fd0", "name": "\u987a\u4e30\u901f\u8fd0(\u82cf\u5dde\u6606\u5c71\u4e2d\u8f6c\u573a)", "name:en": "SF Express", "post_office": "post_depot", "short_name": "\u987a\u4e30"}}, {"type": "node", "id": 9837490070, "lat": 31.4415396, "lon": 121.0934682, "tags": {"amenity": "post_office", "brand": "\u987a\u4e30\u901f\u8fd0", "brand:en": "SF Express", "brand:wikidata": "Q7390019", "brand:zh": "\u987a\u4e30\u901f\u8fd0", "name": "\u987a\u4e30\u901f\u8fd0(\u82cf\u5dde\u5e02\u592a\u4ed3\u57ce\u897f\u5357\u8def\u8425\u4e1a\u70b9)", "name:en": "SF Express", "name:zh": "\u987a\u4e30\u901f\u8fd0", "short_name": "\u987a\u4e30"}}, {"type": "node", "id": 11109950974, "lat": 31.1488125, "lon": 121.2949451, "tags": {"addr:district": "\u677e\u6c5f\u533a", "addr:housenumber": "1170", "addr:province": "\u4e0a\u6d77\u5e02", "addr:street": "\u6d9e\u574a\u8def", "amenity": "post_office", "brand": "\u83dc\u9e1f\u9a7f\u7ad9", "brand:en": "CAI NIAO", "brand:wikidata": "Q16947973", "brand:zh": "\u83dc\u9e1f\u9a7f\u7ad9", "name": "\u83dc\u9e1f\u9a7f\u7ad9", "name:en": "CAI NIAO", "name:zh": "\u83dc\u9e1f\u9a7f\u7ad9"}}, {"type": "node", "id": 11881037109, "lat": 31.2549382, "lon": 121.1458857, "tags": {"amenity": "post_office", "brand": "\u97f5\u8fbe\u901f\u9012", "brand:en": "Yunda Express", "brand:wikidata": "Q17010677", "brand:zh": "\u97f5\u8fbe\u901f\u9012", "name": "\u97f5\u8fbe\u901f\u9012", "name:en": "Yunda Express", "name:zh": "\u97f5\u8fbe\u901f\u9012", "short_name": "\u97f5\u8fbe"}}, {"type": "node", "id": 11883579038, "lat": 31.2507414, "lon": 121.1410186, "tags": {"amenity": "post_office", "brand": "\u4e2d\u901a\u5feb\u9012", "brand:en": "ZTO Express", "brand:wikidata": "Q10876705", "brand:zh": "\u4e2d\u901a\u5feb\u9012", "name": "\u4e2d\u901a\u5feb\u9012", "name:en": "ZTO Express", "name:zh": "\u4e2d\u901a\u5feb\u9012", "short_name": "\u4e2d\u901a"}}, {"type": "node", "id": 11891299603, "lat": 31.2428081, "lon": 121.1307664, "tags": {"amenity": "post_office", "brand": "\u7533\u901a\u5feb\u9012", "brand:en": "STO Express", "brand:wikidata": "Q10426347", "brand:zh": "\u7533\u901a\u5feb\u9012", "name": "\u7533\u901a\u5feb\u9012", "name:en": "STO Express", "name:zh": "\u7533\u901a\u5feb\u9012", "short_name": "\u7533\u901a"}}, {"type": "node", "id": 11891299604, "lat": 31.2428452, "lon": 121.1311011, "tags": {"amenity": "post_office", "brand": "\u5706\u901a\u901f\u9012", "brand:en": "YTO Express", "brand:wikidata": "Q10926656", "brand:zh": "\u5706\u901a\u901f\u9012", "name": "\u5706\u901a\u901f\u9012", "name:en": "YTO Express", "name:zh": "\u5706\u901a\u901f\u9012", "short_name": "\u5706\u901a"}}, {"type": "node", "id": 11891299605, "lat": 31.2427021, "lon": 121.1311505, "tags": {"amenity": "post_office", "name": "\u6781\u5154\u901f\u9012"}}, {"type": "node", "id": 11897969552, "lat": 31.245049, "lon": 121.1323007}, {"type": "node", "id": 11897969553, "lat": 31.2449872, "lon": 121.1322872}, {"type": "node", "id": 11897969554, "lat": 31.2450294, "lon": 121.1320694}, {"type": "node", "id": 11897969555, "lat": 31.2450916, "lon": 121.1320873}, {"type": "node", "id": 13075916042, "lat": 31.2972813, "lon": 121.3102845, "tags": {"addr:housenumber": "205", "addr:street": "\u5fb7\u534e\u8def", "amenity": "post_office", "brand": "\u83dc\u9e1f\u9a7f\u7ad9", "brand:en": "CAI NIAO", "brand:wikidata": "Q16947973", "brand:zh": "\u83dc\u9e1f\u9a7f\u7ad9", "check_date": "2025-08-17", "name": "\u83dc\u9e1f\u9a7f\u7ad9", "name:en": "CAI NIAO", "name:zh": "\u83dc\u9e1f\u9a7f\u7ad9"}}, {"type": "node", "id": 13356982085, "lat": 31.2892718, "lon": 121.2141601}, {"type": "node", "id": 13356982086, "lat": 31.2890844, "lon": 121.2141836}, {"type": "node", "id": 13356982087, "lat": 31.2891328, "lon": 121.2148372}, {"type": "node", "id": 13356982088, "lat": 31.2893214, "lon": 121.2148088}, {"type": "node", "id": 13356982089, "lat": 31.2892939, "lon": 121.2144521}, {"type": "node", "id": 13357076727, "lat": 31.2890942, "lon": 121.2124535, "tags": {"amenity": "post_office", "brand": "\u4e2d\u56fd\u90ae\u653f", "brand:en": "China Post", "brand:wikidata": "Q1066476", "brand:zh": "\u4e2d\u56fd\u90ae\u653f", "name": "\u4e2d\u56fd\u90ae\u653f\u540c\u6d4e\u5927\u5b66\u4e3b\u9898\u90ae\u5c40", "name:en": "China Post", "name:zh": "\u4e2d\u56fd\u90ae\u653f"}}, {"type": "way", "id": 1282088899, "nodes": [11897969552, 11897969553, 11897969554, 11897969555, 11897969552], "tags": {"amenity": "post_office", "brand": "\u5706\u901a\u901f\u9012", "brand:en": "YTO Express", "brand:wikidata": "Q10926656", "brand:zh": "\u5706\u901a\u901f\u9012", "building": "yes", "name": "\u5706\u901a\u901f\u9012", "name:en": "YTO Express", "name:zh": "\u5706\u901a\u901f\u9012", "short_name": "\u5706\u901a"}}, {"type": "way", "id": 1456414426, "nodes": [13356982085, 13356982086, 13356982087, 13356982088, 13356982089, 13356982085], "tags": {"amenity": "post_office", "brand": "\u83dc\u9e1f\u9a7f\u7ad9", "brand:en": "Cainiao", "brand:wikidata": "Q16947973", "brand:zh": "\u83dc\u9e1f\u9a7f\u7ad9", "building": "yes", "name": "\u83dc\u9e1f\u9a7f\u7ad9", "name:en": "CAI NIAO", "name:zh": "\u83dc\u9e1f\u9a7f\u7ad9"}}]}