{"version": 0.6, "generator": "Overpass API 0.7.62.11 87bfad18", "osm3s": {"timestamp_osm_base": "2026-05-19T03:35:27Z", "copyright": "The data included in this document is from www.openstreetmap.org. The data is made available under ODbL."}, "elements": [{"type": "node", "id": 1948395925, "lat": 31.3237705, "lon": 120.6636004, "tags": {"amenity": "post_office", "brand": "\u4e2d\u56fd\u90ae\u653f", "brand:en": "China Post", "brand:wikidata": "Q1066476", "brand:wikipedia": "en:China Post", "name": "\u4e2d\u56fd\u90ae\u653f", "name:en": "China Post"}}, {"type": "node", "id": 5953116392, "lat": 31.1525953, "lon": 121.1118297, "tags": {"amenity": "post_office"}}, {"type": "node", "id": 7550928536, "lat": 31.1550948, "lon": 120.7636854, "tags": {"amenity": "post_office", "brand": "\u4e2d\u56fd\u90ae\u653f", "brand:en": "China Post", "brand:wikidata": "Q1066476", "brand:zh": "\u4e2d\u56fd\u90ae\u653f", "name": "\u4e2d\u56fd\u90ae\u653f", "name:en": "China Post", "name:zh": "\u4e2d\u56fd\u90ae\u653f"}}, {"type": "node", "id": 9836606764, "lat": 31.2719182, "lon": 120.8240136, "tags": {"amenity": "post_office", "brand": "\u987a\u4e30\u901f\u8fd0", "brand:en": "SF Express", "brand:zh": "\u987a\u4e30\u901f\u8fd0", "name": "\u987a\u4e30\u901f\u8fd0(\u82cf\u5dde\u752a\u76f4\u4e2d\u8f6c\u573a)", "name:en": "SF Express", "not:brand:wikidata": "Q7390019", "post_office": "post_depot", "short_name": "\u987a\u4e30"}}, {"type": "node", "id": 9837449284, "lat": 31.4363729, "lon": 120.6972368, "tags": {"amenity": "post_office", "brand": "\u987a\u4e30\u901f\u8fd0", "brand:en": "SF Express", "brand:wikidata": "Q7390019", "brand:zh": "\u987a\u4e30\u901f\u8fd0", "name": "\u987a\u4e30\u901f\u8fd0(\u82cf\u5dde\u5e02\u76f8\u57ce\u533a\u5bcc\u5347\u8def\u8425\u4e1a\u70b9)", "name:en": "SF Express", "short_name": "\u987a\u4e30"}}, {"type": "node", "id": 9837490002, "lat": 31.3299406, "lon": 121.0707668, "tags": {"amenity": "post_office", "brand": "\u987a\u4e30\u901f\u8fd0", "brand:en": "SF Express", "brand:wikidata": "Q7390019", "brand:zh": "\u987a\u4e30\u901f\u8fd0", "name": "\u987a\u4e30\u901f\u8fd0(\u82cf\u5dde\u6606\u5c71\u4e2d\u8f6c\u573a)", "name:en": "SF Express", "post_office": "post_depot", "short_name": "\u987a\u4e30"}}, {"type": "node", "id": 9837490070, "lat": 31.4415396, "lon": 121.0934682, "tags": {"amenity": "post_office", "brand": "\u987a\u4e30\u901f\u8fd0", "brand:en": "SF Express", "brand:wikidata": "Q7390019", "brand:zh": "\u987a\u4e30\u901f\u8fd0", "name": "\u987a\u4e30\u901f\u8fd0(\u82cf\u5dde\u5e02\u592a\u4ed3\u57ce\u897f\u5357\u8def\u8425\u4e1a\u70b9)", "name:en": "SF Express", "name:zh": "\u987a\u4e30\u901f\u8fd0", "short_name": "\u987a\u4e30"}}, {"type": "node", "id": 10223169222, "lat": 31.3587618, "lon": 120.774735, "tags": {"amenity": "post_office", "brand": "\u4e2d\u56fd\u90ae\u653f", "brand:en": "China Post", "brand:wikidata": "Q1066476", "brand:zh": "\u4e2d\u56fd\u90ae\u653f", "name": "\u4e2d\u56fd\u90ae\u653f(\u6c5f\u82cf\u82cf\u5dde\u552f\u4ead\u652f\u5c40)", "name:en": "China Post", "name:zh": "\u4e2d\u56fd\u90ae\u653f"}}, {"type": "node", "id": 11881037109, "lat": 31.2549382, "lon": 121.1458857, "tags": {"amenity": "post_office", "brand": "\u97f5\u8fbe\u901f\u9012", "brand:en": "Yunda Express", "brand:wikidata": "Q17010677", "brand:zh": "\u97f5\u8fbe\u901f\u9012", "name": "\u97f5\u8fbe\u901f\u9012", "name:en": "Yunda Express", "name:zh": "\u97f5\u8fbe\u901f\u9012", "short_name": "\u97f5\u8fbe"}}, {"type": "node", "id": 11883579038, "lat": 31.2507414, "lon": 121.1410186, "tags": {"amenity": "post_office", "brand": "\u4e2d\u901a\u5feb\u9012", "brand:en": "ZTO Express", "brand:wikidata": "Q10876705", "brand:zh": "\u4e2d\u901a\u5feb\u9012", "name": "\u4e2d\u901a\u5feb\u9012", "name:en": "ZTO Express", "name:zh": "\u4e2d\u901a\u5feb\u9012", "short_name": "\u4e2d\u901a"}}, {"type": "node", "id": 11891299603, "lat": 31.2428081, "lon": 121.1307664, "tags": {"amenity": "post_office", "brand": "\u7533\u901a\u5feb\u9012", "brand:en": "STO Express", "brand:wikidata": "Q10426347", "brand:zh": "\u7533\u901a\u5feb\u9012", "name": "\u7533\u901a\u5feb\u9012", "name:en": "STO Express", "name:zh": "\u7533\u901a\u5feb\u9012", "short_name": "\u7533\u901a"}}, {"type": "node", "id": 11891299604, "lat": 31.2428452, "lon": 121.1311011, "tags": {"amenity": "post_office", "brand": "\u5706\u901a\u901f\u9012", "brand:en": "YTO Express", "brand:wikidata": "Q10926656", "brand:zh": "\u5706\u901a\u901f\u9012", "name": "\u5706\u901a\u901f\u9012", "name:en": "YTO Express", "name:zh": "\u5706\u901a\u901f\u9012", "short_name": "\u5706\u901a"}}, {"type": "node", "id": 11891299605, "lat": 31.2427021, "lon": 121.1311505, "tags": {"amenity": "post_office", "name": "\u6781\u5154\u901f\u9012"}}, {"type": "node", "id": 11897969552, "lat": 31.245049, "lon": 121.1323007}, {"type": "node", "id": 11897969553, "lat": 31.2449872, "lon": 121.1322872}, {"type": "node", "id": 11897969554, "lat": 31.2450294, "lon": 121.1320694}, {"type": "node", "id": 11897969555, "lat": 31.2450916, "lon": 121.1320873}, {"type": "way", "id": 1282088899, "nodes": [11897969552, 11897969553, 11897969554, 11897969555, 11897969552], "tags": {"amenity": "post_office", "brand": "\u5706\u901a\u901f\u9012", "brand:en": "YTO Express", "brand:wikidata": "Q10926656", "brand:zh": "\u5706\u901a\u901f\u9012", "building": "yes", "name": "\u5706\u901a\u901f\u9012", "name:en": "YTO Express", "name:zh": "\u5706\u901a\u901f\u9012", "short_name": "\u5706\u901a"}}]}