{"version": 0.6, "generator": "Overpass API 0.7.62.11 87bfad18", "osm3s": {"timestamp_osm_base": "2026-05-19T03:49:44Z", "copyright": "The data included in this document is from www.openstreetmap.org. The data is made available under ODbL."}, "elements": [{"type": "node", "id": 6440599420, "lat": 31.7278435, "lon": 120.052771, "tags": {"amenity": "post_office", "brand": "\u83dc\u9e1f\u9a7f\u7ad9", "brand:en": "CAI NIAO", "brand:wikidata": "Q16947973", "brand:wikipedia": "zh:\u83dc\u9e1f\u7f51\u7edc", "brand:zh": "\u83dc\u9e1f\u9a7f\u7ad9", "name": "\u83dc\u9e1f\u9a7f\u7ad9", "name:en": "CAI NIAO", "name:zh": "\u83dc\u9e1f\u9a7f\u7ad9"}}, {"type": "node", "id": 8479026775, "lat": 31.6957593, "lon": 119.9331048, "tags": {"addr:city": "\u5e38\u5dde\u5e02", "addr:district": "\u6b66\u8fdb\u533a", "addr:housenumber": "199-59\u53f7", "addr:postcode": "213000", "addr:province": "\u6c5f\u82cf\u7701", "addr:street": "\u5c0f\u7559\u8def", "amenity": "post_office", "brand": "\u83dc\u9e1f\u9a7f\u7ad9", "brand:en": "CAI NIAO", "brand:wikidata": "Q16947973", "brand:zh": "\u83dc\u9e1f\u9a7f\u7ad9", "name": "\u83dc\u9e1f\u9a7f\u7ad9", "name:en": "CAI NIAO", "name:zh": "\u83dc\u9e1f\u9a7f\u7ad9"}}, {"type": "node", "id": 9828488271, "lat": 31.5250297, "lon": 119.9130598, "tags": {"amenity": "post_office", "name": "\u5b9c\u5174\u5e02\u95f8\u53e3\u90ae\u653f\u652f\u5c40", "operator": "\u4e2d\u56fd\u90ae\u653f"}}, {"type": "node", "id": 11047691361, "lat": 31.77632, "lon": 119.9601549, "tags": {"amenity": "post_office", "brand": "\u4e2d\u56fd\u90ae\u653f", "brand:en": "China Post", "brand:wikidata": "Q1066476", "brand:zh": "\u4e2d\u56fd\u90ae\u653f", "name": "\u4e2d\u56fd\u90ae\u653f", "name:en": "China Post", "name:zh": "\u4e2d\u56fd\u90ae\u653f"}}, {"type": "node", "id": 11210255497, "lat": 31.7326532, "lon": 119.6002364, "tags": {"amenity": "post_office", "brand": "\u4e2d\u56fd\u90ae\u653f", "brand:en": "China Post", "brand:wikidata": "Q1066476", "brand:zh": "\u4e2d\u56fd\u90ae\u653f", "name": "\u4e2d\u56fd\u90ae\u653f(\u65b0\u57ce\u8def\u90ae\u653f\u652f\u5c40)", "name:en": "China Post", "name:zh": "\u4e2d\u56fd\u90ae\u653f"}}, {"type": "node", "id": 11210255503, "lat": 31.7409658, "lon": 119.6242868, "tags": {"amenity": "post_office", "brand": "\u4e2d\u56fd\u90ae\u653f", "brand:en": "China Post", "brand:wikidata": "Q1066476", "brand:zh": "\u4e2d\u56fd\u90ae\u653f", "name": "\u4e2d\u56fd\u90ae\u653f(\u91d1\u6c5f\u82d1\u90ae\u653f\u652f\u5c40)", "name:en": "China Post", "name:zh": "\u4e2d\u56fd\u90ae\u653f"}}, {"type": "node", "id": 11210255534, "lat": 31.7513339, "lon": 119.659299, "tags": {"amenity": "post_office", "brand": "\u4e2d\u56fd\u90ae\u653f", "brand:en": "China Post", "brand:wikidata": "Q1066476", "brand:zh": "\u4e2d\u56fd\u90ae\u653f", "name": "\u4e2d\u56fd\u90ae\u653f(\u6cb3\u5934\u90ae\u653f\u652f\u5c40)", "name:en": "China Post", "name:zh": "\u4e2d\u56fd\u90ae\u653f"}}, {"type": "node", "id": 11210289037, "lat": 31.7188678, "lon": 119.6768724, "tags": {"amenity": "post_office", "brand": "\u4e2d\u56fd\u90ae\u653f", "brand:en": "China Post", "brand:wikidata": "Q1066476", "brand:zh": "\u4e2d\u56fd\u90ae\u653f", "name": "\u4e2d\u56fd\u90ae\u653f(\u5c27\u5858\u90ae\u653f\u652f\u5c40)", "name:en": "China Post", "name:zh": "\u4e2d\u56fd\u90ae\u653f"}}, {"type": "node", "id": 11420429192, "lat": 31.7919046, "lon": 119.9525385, "tags": {"amenity": "post_office", "brand": "\u987a\u4e30\u901f\u8fd0", "brand:en": "SF Express", "brand:short": "\u987a\u4e30", "brand:wikidata": "Q7390019", "brand:zh": "\u987a\u4e30\u901f\u8fd0", "name": "\u987a\u4e30\u901f\u8fd0", "name:en": "SF Express", "name:zh": "\u987a\u4e30\u901f\u8fd0", "short_name": "\u987a\u4e30"}}, {"type": "node", "id": 11431757876, "lat": 31.7482717, "lon": 119.8424758}, {"type": "node", "id": 11431757877, "lat": 31.748201, "lon": 119.8421075}, {"type": "node", "id": 11431757878, "lat": 31.7483294, "lon": 119.8420734}, {"type": "node", "id": 11431757879, "lat": 31.7484, "lon": 119.8424417}, {"type": "node", "id": 12153628215, "lat": 31.7742679, "lon": 119.9568207, "tags": {"amenity": "post_office", "brand": "\u4e2d\u56fd\u90ae\u653f", "brand:en": "China Post", "brand:wikidata": "Q1066476", "brand:zh": "\u4e2d\u56fd\u90ae\u653f", "name": "\u4e2d\u56fd\u90ae\u653f\u72b6\u5143\u4e3b\u9898\u90ae\u5c40", "name:en": "China Post", "name:zh": "\u4e2d\u56fd\u90ae\u653f"}}, {"type": "node", "id": 12458059628, "lat": 31.7831649, "lon": 119.9454759, "tags": {"amenity": "post_office", "brand": "\u4e2d\u56fd\u90ae\u653f", "brand:en": "China Post", "brand:wikidata": "Q1066476", "brand:zh": "\u4e2d\u56fd\u90ae\u653f", "name": "\u4e2d\u56fd\u90ae\u653f", "name:en": "China Post", "name:zh": "\u4e2d\u56fd\u90ae\u653f"}}, {"type": "node", "id": 12538502103, "lat": 31.7983521, "lon": 119.9425327, "tags": {"amenity": "post_office", "brand": "\u83dc\u9e1f\u9a7f\u7ad9", "brand:en": "CAI NIAO", "brand:wikidata": "Q16947973", "brand:zh": "\u83dc\u9e1f\u9a7f\u7ad9", "name": "\u83dc\u9e1f\u9a7f\u7ad9", "name:en": "CAI NIAO", "name:zh": "\u83dc\u9e1f\u9a7f\u7ad9"}}, {"type": "node", "id": 13301752696, "lat": 31.7683633, "lon": 119.9438772, "tags": {"amenity": "post_office", "brand": "\u4e2d\u56fd\u90ae\u653f", "brand:en": "China Post", "brand:wikidata": "Q1066476", "brand:zh": "\u4e2d\u56fd\u90ae\u653f", "name": "\u4e2d\u56fd\u90ae\u653f", "name:en": "China Post", "name:zh": "\u4e2d\u56fd\u90ae\u653f"}}, {"type": "node", "id": 13462150844, "lat": 31.7850098, "lon": 119.9657035, "tags": {"amenity": "post_office", "brand": "\u83dc\u9e1f\u9a7f\u7ad9", "brand:en": "CAI NIAO", "brand:wikidata": "Q16947973", "brand:zh": "\u83dc\u9e1f\u9a7f\u7ad9", "name": "\u83dc\u9e1f\u9a7f\u7ad9", "name:en": "CAI NIAO", "name:zh": "\u83dc\u9e1f\u9a7f\u7ad9"}}, {"type": "node", "id": 13546393907, "lat": 31.7256913, "lon": 119.7992887, "tags": {"amenity": "post_office", "brand": "\u4e2d\u56fd\u90ae\u653f", "brand:en": "China Post", "brand:wikidata": "Q1066476", "brand:zh": "\u4e2d\u56fd\u90ae\u653f", "name": "\u4e2d\u56fd\u90ae\u653f", "name:en": "China Post", "name:zh": "\u4e2d\u56fd\u90ae\u653f"}}, {"type": "node", "id": 13662040372, "lat": 31.5983244, "lon": 119.9036049, "tags": {"amenity": "post_office", "branch": "\u574a\u524d\u90ae\u653f\u652f\u5c40", "brand": "\u4e2d\u56fd\u90ae\u653f", "brand:en": "China Post", "brand:wikidata": "Q1066476", "brand:zh": "\u4e2d\u56fd\u90ae\u653f", "name": "\u4e2d\u56fd\u90ae\u653f", "name:en": "China Post", "name:zh": "\u4e2d\u56fd\u90ae\u653f"}}, {"type": "way", "id": 1232391729, "nodes": [11431757879, 11431757878, 11431757877, 11431757876, 11431757879], "tags": {"amenity": "post_office", "building": "yes", "name": "\u793c\u6cb3\u90ae\u653f\u652f\u5c40", "office": "telecommunication"}}]}