{"version": 0.6, "generator": "Overpass API 0.7.62.11 87bfad18", "osm3s": {"timestamp_osm_base": "2026-05-19T03:44:46Z", "copyright": "The data included in this document is from www.openstreetmap.org. The data is made available under ODbL."}, "elements": [{"type": "node", "id": 824530194, "lat": 31.3163832, "lon": 121.1537318, "tags": {"alt_name": "\u5b89\u4ead\u5317\u7ad9;Anting North;Anting North Railway Station;Antingbei Railway Station", "name": "\u5b89\u4ead\u5317", "name:en": "Antingbei", "name:zh": "\u5b89\u4ead\u5317", "public_transport": "station", "railway": "station", "railway:ref": "66340", "train": "yes"}}, {"type": "node", "id": 1186972455, "lat": 31.2905132, "lon": 121.1583211}, {"type": "node", "id": 1186972467, "lat": 31.2903241, "lon": 121.1583318}, {"type": "node", "id": 1186972476, "lat": 31.2902569, "lon": 121.156706}, {"type": "node", "id": 1186972509, "lat": 31.2903091, "lon": 121.1567031}, {"type": "node", "id": 1186972550, "lat": 31.290446, "lon": 121.1566953}, {"type": "node", "id": 1186972567, "lat": 31.2904036, "lon": 121.1566977}, {"type": "node", "id": 1709842763, "lat": 31.3626732, "lon": 120.7842613, "tags": {"name": "\u552f\u4ead", "name:en": "Weiting", "public_transport": "station", "railway": "station", "railway:ref": "30542"}}, {"type": "node", "id": 2099906480, "lat": 31.3143248, "lon": 120.6455534, "tags": {"name": "\u4e1c\u73af\u8def", "name:en": "Donghuan Lu", "name:zh": "\u4e1c\u73af\u8def", "name:zh-Hans": "\u4e1c\u73af\u8def", "name:zh-Hant": "\u6771\u74b0\u8def", "operator": "SRT", "public_transport": "station", "railway": "station", "station": "subway", "subway": "yes", "wheelchair": "yes", "wikidata": "Q5295930", "wikipedia": "zh:\u4e1c\u73af\u8def\u7ad9 (\u82cf\u5dde)"}}, {"type": "node", "id": 2099907821, "lat": 31.3159267, "lon": 120.6561576, "tags": {"name": "\u4e2d\u592e\u516c\u56ed", "name:en": "Central Park", "name:zh": "\u4e2d\u592e\u516c\u56ed", "name:zh-Hans": "\u4e2d\u592e\u516c\u56ed", "name:zh-Hant": "\u4e2d\u592e\u516c\u5712", "operator": "SRT", "public_transport": "station", "railway": "station", "station": "subway", "subway": "yes", "wheelchair": "yes", "wikidata": "Q5061624", "wikipedia": "zh:\u4e2d\u592e\u516c\u56ed\u7ad9 (\u82cf\u5dde)"}}, {"type": "node", "id": 2099910928, "lat": 31.3176004, "lon": 120.6666052, "tags": {"name": "\u661f\u6d77\u5e7f\u573a", "name:en": "Xinghai Square", "operator": "SRT", "public_transport": "station", "railway": "station", "station": "subway", "subway": "yes", "wikidata": "Q8044546"}}, {"type": "node", "id": 2099915140, "lat": 31.3252132, "lon": 120.700063, "tags": {"name": "\u6587\u5316\u535a\u89c8\u4e2d\u5fc3", "name:en": "Wenhuabolanzhongxin", "operator": "SRT", "public_transport": "station", "railway": "station", "station": "subway", "subway": "yes", "wikidata": "Q5193440"}}, {"type": "node", "id": 2101679031, "lat": 31.3251911, "lon": 120.7162904, "tags": {"name": "\u661f\u6e56\u8857", "name:en": "Xinghu Jie", "operator": "SRT", "public_transport": "station", "railway": "station", "station": "subway", "subway": "yes", "toilets:wheelchair": "yes", "wheelchair": "no", "wikidata": "Q11088602"}}, {"type": "node", "id": 2101681018, "lat": 31.3264943, "lon": 120.729087, "tags": {"name": "\u5357\u65bd\u8857", "name:en": "Nanshi Jie", "operator": "SRT", "public_transport": "station", "railway": "station", "station": "subway", "subway": "yes", "wikidata": "Q6964247"}}, {"type": "node", "id": 2101685386, "lat": 31.3276076, "lon": 120.7397897, "tags": {"name": "\u661f\u5858\u8857", "name:en": "Xingtang Jie", "operator": "SRT", "public_transport": "station", "railway": "station", "station": "subway", "subway": "yes", "wikidata": "Q8044569"}}, {"type": "node", "id": 2101691354, "lat": 31.3284851, "lon": 120.7517372, "tags": {"name": "\u949f\u5357\u8857", "name:en": "Zhongnan Jie", "operator": "SRT", "public_transport": "station", "railway": "station", "station": "subway", "subway": "yes", "wikidata": "Q8070948"}}, {"type": "node", "id": 3116473830, "lat": 31.2904954, "lon": 121.1578914, "tags": {"level": "1", "railway": "subway_entrance", "ref": "1"}}, {"type": "node", "id": 3116486429, "lat": 31.2902648, "lon": 121.1568969, "tags": {"level": "1", "railway": "subway_entrance", "ref": "3"}}, {"type": "node", "id": 3506766919, "lat": 31.2909, "lon": 121.1454617, "tags": {"name": "\u5146\u4e30\u8def", "name:en": "Zhaofeng Road", "network": "\u4e0a\u6d77\u5730\u94c1", "public_transport": "station", "railway": "station", "station": "subway", "subway": "yes", "wikidata": "Q10889885"}}, {"type": "node", "id": 3506766920, "lat": 31.2980927, "lon": 121.1125552, "tags": {"name": "\u5149\u660e\u8def", "name:en": "Guangming Road", "network": "\u4e0a\u6d77\u5730\u94c1", "public_transport": "station", "railway": "station", "station": "subway", "subway": "yes", "wikidata": "Q10890410"}}, {"type": "node", "id": 3506766921, "lat": 31.3006017, "lon": 121.099759, "tags": {"name": "\u82b1\u6865", "name:en": "Huaqiao", "name:zh-Hant": "\u82b1\u6a4b", "network": "\u4e0a\u6d77\u5730\u94c1", "public_transport": "station", "railway": "station", "station": "subway", "subway": "yes", "wikidata": "Q15079186", "wikipedia": "en:Huaqiao metro station (Kunshan)"}}, {"type": "node", "id": 3835347927, "lat": 31.2903062, "lon": 121.1578987, "tags": {"level": "1", "railway": "subway_entrance", "ref": "2"}}, {"type": "node", "id": 3835347928, "lat": 31.2902726, "lon": 121.1567051, "tags": {"level": "0", "railway": "subway_entrance", "ref": "4"}}, {"type": "node", "id": 4249835303, "lat": 31.3375722, "lon": 121.042009, "tags": {"name": "\u82b1\u6865", "name:en": "Huaqiao", "name:zh-Hant": "\u82b1\u6a4b", "public_transport": "station", "railway": "station", "railway:ref": "66337"}}, {"type": "node", "id": 4559363776, "lat": 31.2519867, "lon": 120.6597145, "tags": {"name": "\u5c39\u4e2d\u8def", "name:en": "Yinzhong Lu", "public_transport": "station", "railway": "station", "station": "subway", "subway": "yes", "wikidata": "Q60675525"}}, {"type": "node", "id": 4559363778, "lat": 31.250382, "lon": 120.6802617, "tags": {"name": "\u90ed\u82d1\u8def", "name:en": "Guoyuan Lu", "public_transport": "station", "railway": "station", "station": "subway", "subway": "yes", "wikidata": "Q60675487"}}, {"type": "node", "id": 4559363779, "lat": 31.2501455, "lon": 120.6930122, "tags": {"name": "\u5c39\u5c71\u6e56", "name:en": "Yinshan Lake", "name:zh": "\u5c39\u5c71\u6e56", "name:zh-Hans": "\u5c39\u5c71\u6e56", "name:zh-Hant": "\u5c39\u5c71\u6e56", "public_transport": "station", "railway": "station", "station": "subway", "subway": "yes", "wheelchair": "no"}}, {"type": "node", "id": 4559363781, "lat": 31.2623029, "lon": 120.723045, "tags": {"name": "\u6708\u4eae\u6e7e", "name:en": "Yueliangwan", "public_transport": "station", "railway": "station", "station": "subway", "subway": "yes", "wikidata": "Q60675493"}}, {"type": "node", "id": 4559363782, "lat": 31.2511294, "lon": 120.6695728, "tags": {"name": "\u90ed\u5df7", "name:en": "Guoxiang", "public_transport": "station", "railway": "station", "station": "subway", "subway": "yes", "wikidata": "Q60682636"}}, {"type": "node", "id": 4559363783, "lat": 31.2714194, "lon": 120.7527216, "tags": {"name": "\u91d1\u8c37\u8def", "name:en": "Jingu Lu", "public_transport": "stop_position", "railway": "stop", "station": "subway", "subway": "yes"}}, {"type": "node", "id": 4559363784, "lat": 31.2661106, "lon": 120.7364389, "tags": {"name": "\u677e\u6d9b\u8857", "name:en": "Songtao Jie", "public_transport": "station", "railway": "station", "station": "subway", "subway": "yes", "wikidata": "Q60675484"}}, {"type": "node", "id": 4559363786, "lat": 31.255445, "lon": 120.7184886, "tags": {"name": "\u72ec\u5885\u6e56\u90bb\u91cc\u4e2d\u5fc3", "name:en": "Dushuhu Neighborhood Center", "public_transport": "station", "railway": "station", "station": "subway", "subway": "yes", "wikidata": "Q60675472"}}, {"type": "node", "id": 4570242991, "lat": 31.1395963, "lon": 120.6956499, "tags": {"name": "\u540c\u91cc", "name:en": "Tongli", "public_transport": "station", "railway": "station", "station": "subway", "subway": "yes", "wikidata": "Q29650261"}}, {"type": "node", "id": 4570242992, "lat": 31.1392834, "lon": 120.6587275, "tags": {"name": "\u5434\u6c5f\u6c7d\u8f66\u7ad9", "name:en": "Wujiang Coach Station", "public_transport": "station", "railway": "station", "station": "subway", "subway": "yes"}}, {"type": "node", "id": 4596174541, "lat": 31.2720266, "lon": 120.6526548, "tags": {"name": "\u5317\u6e2f\u8def", "name:en": "Beiganglu", "public_transport": "station", "railway": "station", "station": "subway", "subway": "yes"}}, {"type": "node", "id": 4596174544, "lat": 31.2906979, "lon": 120.6720337, "tags": {"name": "\u4e1c\u632f\u8def", "name:en": "Dongzhenlu", "name:zh-Hant": "\u6771\u632f\u8def", "public_transport": "station", "railway": "station", "station": "subway", "subway": "yes"}}, {"type": "node", "id": 4596174545, "lat": 31.2986642, "lon": 120.6741393, "tags": {"name": "\u91d1\u538d\u6865", "name:en": "Jinsheqiao", "name:zh-Hant": "\u91d1\u5399\u6a4b", "name:zh-Latn-pinyin": "J\u012bnsh\u00e8qi\u00e1o", "public_transport": "station", "railway": "station", "station": "subway", "subway": "yes"}}, {"type": "node", "id": 4596174546, "lat": 31.3085693, "lon": 120.6755724, "tags": {"name": "\u674e\u516c\u5824\u897f", "name:en": "Ligongdi West", "public_transport": "station", "railway": "station", "station": "subway", "subway": "yes"}}, {"type": "node", "id": 4596174547, "lat": 31.3252346, "lon": 120.6738925, "tags": {"name": "\u70df\u96e8\u6865", "name:en": "Yanyuqiao", "name:zh-Hant": "\u7159\u96e8\u6a4b", "public_transport": "station", "railway": "station", "station": "subway", "subway": "yes"}}, {"type": "node", "id": 4596174548, "lat": 31.3354117, "lon": 120.6691235, "tags": {"name": "\u502a\u6d5c", "name:en": "Nibang", "public_transport": "station", "railway": "station", "station": "subway", "subway": "yes"}}, {"type": "node", "id": 4596174549, "lat": 31.342573, "lon": 120.6799006, "tags": {"name": "\u5510\u5e84", "name:en": "Tangzhuang", "name:zh-Hant": "\u5510\u838a", "public_transport": "station", "railway": "station", "station": "subway", "subway": "yes", "wikidata": "Q86648199", "wikipedia": "en:Tangzhuang station"}}, {"type": "node", "id": 4596174550, "lat": 31.3446599, "lon": 120.6897575, "tags": {"name": "\u8de8\u5858", "name:en": "Kuatang", "public_transport": "station", "railway": "station", "station": "subway", "subway": "yes"}}, {"type": "node", "id": 4596174551, "lat": 31.3448484, "lon": 120.7053978, "tags": {"name": "\u82cf\u5dde\u56ed\u533a\u706b\u8f66\u7ad9", "name:en": "Suzhou Yuanqu Railway Station", "name:zh-Hant": "\u8607\u5dde\u5712\u5340\u706b\u8eca\u7ad9", "public_transport": "station", "railway": "station", "station": "subway", "subway": "yes"}}, {"type": "node", "id": 4596174552, "lat": 31.3526129, "lon": 120.7215798, "tags": {"name": "\u65b9\u6e7e\u8857", "name:en": "Fangwanjie", "name:zh-Hant": "\u65b9\u7063\u8857", "public_transport": "station", "railway": "station", "station": "subway", "subway": "yes"}}, {"type": "node", "id": 4596174553, "lat": 31.3553998, "lon": 120.734961, "tags": {"name": "\u4e30\u548c\u8def", "name:en": "Fenghelu", "name:zh-Hant": "\u8c50\u548c\u8def", "public_transport": "station", "railway": "station", "station": "subway", "subway": "yes"}}, {"type": "node", "id": 4596174554, "lat": 31.3603397, "lon": 120.7495935, "tags": {"name": "\u53cc\u9a6c\u8857", "name:en": "Shuangmajie", "name:zh-Hant": "\u96d9\u99ac\u8857", "public_transport": "station", "railway": "station", "station": "subway", "subway": "yes"}}, {"type": "node", "id": 4596174557, "lat": 31.3664487, "lon": 120.7848271, "tags": {"name": "\u552f\u4ead", "name:en": "Weiting", "public_transport": "station", "railway": "station", "station": "subway", "subway": "yes", "wikidata": "Q80179773", "wikipedia": "en:Weiting station"}}, {"type": "node", "id": 4625473985, "lat": 31.2986696, "lon": 120.6530397, "tags": {"name": "\u8377\u82b1\u8361", "name:en": "Hehuadang", "public_transport": "station", "railway": "station", "station": "subway", "subway": "yes"}}, {"type": "node", "id": 4625473986, "lat": 31.2989296, "lon": 120.6603053, "tags": {"name": "\u9ec4\u5929\u8361", "name:en": "Huangtiandang", "public_transport": "station", "railway": "station", "station": "subway", "subway": "yes"}}, {"type": "node", "id": 4625473987, "lat": 31.298755, "lon": 120.6822846, "tags": {"name": "\u661f\u6ce2\u8857", "name:en": "Xingbo Jie", "public_transport": "station", "railway": "station", "station": "subway", "subway": "yes"}}, {"type": "node", "id": 4625473988, "lat": 31.2984001, "lon": 120.6906524, "tags": {"name": "\u674e\u516c\u5824\u5357", "name:en": "South Ligongdi", "public_transport": "station", "railway": "station", "station": "subway", "subway": "yes"}}, {"type": "node", "id": 4625474489, "lat": 31.2996304, "lon": 120.7043651, "tags": {"name": "\u91d1\u6e56", "name:en": "Jinhu", "public_transport": "station", "railway": "station", "station": "subway", "subway": "yes"}}, {"type": "node", "id": 4625474490, "lat": 31.3010805, "lon": 120.7184028, "tags": {"name": "\u534e\u83b2", "name:en": "Hualian", "public_transport": "station", "railway": "station", "station": "subway", "subway": "yes"}}, {"type": "node", "id": 4625474492, "lat": 31.3105601, "lon": 120.7401438, "tags": {"name": "\u82cf\u5dde\u5965\u4f53\u4e2d\u5fc3", "name:en": "Suzhou Olympic Sports Center", "public_transport": "station", "railway": "station", "station": "subway", "subway": "yes"}}, {"type": "node", "id": 4625474493, "lat": 31.3192299, "lon": 120.7398961, "tags": {"name": "\u65b9\u6d32\u516c\u56ed", "name:en": "Fangzhougongyuan", "public_transport": "station", "railway": "station", "station": "subway", "subway": "yes"}}, {"type": "node", "id": 4625474494, "lat": 31.3374427, "lon": 120.7435791, "tags": {"name": "\u9f99\u58a9", "name:en": "Longdun", "network": "\u82cf\u5dde\u5730\u94c15\u53f7\u7ebf", "operator": "SRT", "public_transport": "station", "railway": "station", "station": "subway", "subway": "yes"}}, {"type": "node", "id": 4625474496, "lat": 31.3721667, "lon": 120.7784257, "tags": {"name": "\u9633\u6f84\u6e56\u5357", "name:en": "Yangchenghu South", "network": "\u82cf\u5dde\u5730\u94c15\u53f7\u7ebf", "operator": "SRT", "public_transport": "station", "railway": "station", "station": "subway", "subway": "yes"}}, {"type": "node", "id": 4757288848, "lat": 31.4393434, "lon": 120.6508406, "tags": {"name": "\u9a91\u6cb3", "name:en": "Qihe", "public_transport": "station", "railway": "station", "station": "subway", "subway": "yes", "wikidata": "Q27429873"}}, {"type": "node", "id": 4757288849, "lat": 31.4318487, "lon": 120.6468525, "tags": {"name": "\u5bcc\u7fd4\u8def", "name:en": "Fuxiang Lu", "public_transport": "station", "railway": "station", "station": "subway", "subway": "yes", "wikidata": "Q28046900"}}, {"type": "node", "id": 4757289349, "lat": 31.1396278, "lon": 120.6752044, "tags": {"name": "\u5e9e\u91d1\u8def", "name:en": "Pangjin Lu", "public_transport": "station", "railway": "station", "station": "subway", "subway": "yes"}}, {"type": "node", "id": 5308115519, "lat": 31.1005043, "lon": 121.0148951, "tags": {"name": "\u4e1c\u65b9\u7eff\u821f", "name:en": "Oriental Land", "public_transport": "station", "railway": "station", "station": "subway", "subway": "yes", "wikidata": "Q47005412"}}, {"type": "node", "id": 5308115520, "lat": 31.1024894, "lon": 121.0444783, "tags": {"alt_name": "\u6731\u5bb6\u89d2\u5730\u94c1\u7ad9", "alt_name:zh": "\u6731\u5bb6\u89d2\u5730\u94c1\u7ad9", "name": "\u6731\u5bb6\u89d2", "name:en": "Zhujiajiao", "name:zh": "\u6731\u5bb6\u89d2", "public_transport": "station", "railway": "station", "station": "subway", "subway": "yes", "wheelchair": "limited", "wikidata": "Q47005389", "wikipedia": "zh:\u6731\u5bb6\u89d2\u7ad9"}}, {"type": "node", "id": 5308116321, "lat": 31.1361923, "lon": 121.0774053, "tags": {"name": "\u6dc0\u5c71\u6e56\u5927\u9053", "name:en": "Dianshanhu Avenue", "public_transport": "station", "railway": "station", "station": "subway", "subway": "yes", "wheelchair": "limited", "wikidata": "Q47006305"}}, {"type": "node", "id": 5308116322, "lat": 31.162321, "lon": 121.0919563, "tags": {"name": "\u6f15\u76c8\u8def", "name:en": "Caoying Road", "public_transport": "station", "railway": "station", "station": "subway", "subway": "yes", "wheelchair": "limited", "wikidata": "Q47007304"}}, {"type": "node", "id": 5308116323, "lat": 31.1607843, "lon": 121.1210999, "tags": {"name": "\u9752\u6d66\u65b0\u57ce", "name:en": "Qingpu Xincheng", "public_transport": "station", "railway": "station", "station": "subway", "subway": "yes", "wikidata": "Q47005378"}}, {"type": "node", "id": 5308116324, "lat": 31.1631754, "lon": 121.1474612, "tags": {"name": "\u6c47\u91d1\u8def", "name:en": "Huijin Road", "name:zh": "\u6c47\u91d1\u8def", "public_transport": "station", "railway": "station", "station": "subway", "subway": "yes", "wheelchair": "limited", "wikidata": "Q47006294"}}, {"type": "node", "id": 5469475122, "lat": 31.3192624, "lon": 120.6759703, "tags": {"name": "\u4e1c\u65b9\u4e4b\u95e8", "name:en": "Dongfangzhimen", "name:zh-Hant": "\u6771\u65b9\u4e4b\u9580", "operator": "SRT", "public_transport": "station", "railway": "station", "station": "subway", "subway": "yes"}}, {"type": "node", "id": 5469475262, "lat": 31.2714351, "lon": 120.6636572, "tags": {"name": "\u901a\u56ed\u8def\u5357", "name:en": "Tongyuanlu South", "name:zh-Hant": "\u901a\u5712\u8def\u5357", "public_transport": "station", "railway": "station", "station": "subway", "subway": "yes"}}, {"type": "node", "id": 5469475733, "lat": 31.2821809, "lon": 120.6700017, "tags": {"name": "\u5885\u6d66\u8def\u5317", "name:en": "Shupulu North", "public_transport": "station", "railway": "station", "station": "subway", "subway": "yes"}}, {"type": "node", "id": 5851143316, "lat": 31.3781997, "lon": 120.7954153, "tags": {"name": "\u8349\u978b\u5c71", "name:en": "Caoxieshan", "public_transport": "station", "railway": "station", "station": "subway", "subway": "yes", "wikidata": "Q119890218"}}, {"type": "node", "id": 5851143317, "lat": 31.3844899, "lon": 120.8563578, "tags": {"name": "\u6b63\u4eea", "name:en": "Zhengyi", "name:zh-Hant": "\u6b63\u5100", "public_transport": "station", "railway": "station", "station": "subway", "subway": "yes", "wikidata": "Q119890220", "wikipedia": "zh:\u6b63\u4eea\u7ad9 (\u5730\u94c1)"}}, {"type": "node", "id": 5851143318, "lat": 31.384488, "lon": 120.8775295, "tags": {"name": "\u83b2\u6e56\u516c\u56ed", "name:en": "Lianhugongyuan", "name:zh-Hant": "\u84ee\u6e56\u516c\u5712", "public_transport": "station", "railway": "station", "station": "subway", "subway": "yes", "wikidata": "Q119890221", "wikipedia": "zh:\u83b2\u6e56\u516c\u56ed\u7ad9"}}, {"type": "node", "id": 5851143319, "lat": 31.3833786, "lon": 120.8907275, "tags": {"name": "\u7956\u51b2\u4e4b\u516c\u56ed", "name:en": "Zuchongzhigongyuan", "name:zh-Hant": "\u7956\u6c96\u4e4b\u516c\u5712", "public_transport": "station", "railway": "station", "station": "subway", "subway": "yes", "wikidata": "Q119890222", "wikipedia": "zh:\u7956\u51b2\u4e4b\u516c\u56ed\u7ad9"}}, {"type": "node", "id": 5851143320, "lat": 31.3834264, "lon": 120.9024822, "tags": {"name": "\u6606\u5c71\u6587\u5316\u827a\u672f\u4e2d\u5fc3", "name:en": "Kunshan Wenhuayishuzhongxin", "name:zh-Hant": "\u5d11\u5c71\u6587\u5316\u85dd\u8853\u4e2d\u5fc3", "public_transport": "station", "railway": "station", "station": "subway", "subway": "yes", "wikidata": "Q119890223", "wikipedia": "zh:\u6606\u5c71\u6587\u5316\u827a\u672f\u4e2d\u5fc3\u7ad9"}}, {"type": "node", "id": 5851143322, "lat": 31.3826287, "lon": 120.9242312, "tags": {"name": "\u6c5f\u6d66", "name:en": "Jiangpu", "public_transport": "station", "railway": "station", "station": "subway", "subway": "yes", "wikidata": "Q119890225", "wikipedia": "zh:\u6c5f\u6d66\u7ad9"}}, {"type": "node", "id": 5851143323, "lat": 31.3832672, "lon": 120.9386587, "tags": {"name": "\u767d\u9a6c\u6cfe", "name:en": "Baimajing", "name:zh-Hant": "\u767d\u99ac\u6d87", "public_transport": "station", "railway": "station", "station": "subway", "subway": "yes", "wikidata": "Q119890226", "wikipedia": "zh:\u767d\u9a6c\u6cfe\u7ad9"}}, {"type": "node", "id": 5851143324, "lat": 31.3843915, "lon": 120.9524962, "tags": {"name": "\u7389\u5c71\u5e7f\u573a", "name:en": "Yushanguangchang", "name:zh-Hant": "\u7389\u5c71\u5ee3\u5834", "public_transport": "station", "railway": "station", "station": "subway", "subway": "yes", "wikidata": "Q119890228", "wikipedia": "zh:\u7389\u5c71\u5e7f\u573a\u7ad9"}}, {"type": "node", "id": 5851143325, "lat": 31.3850956, "lon": 120.9671773, "tags": {"name": "\u7ee3\u8863", "name:en": "Xiuyi", "name:zh-Hant": "\u7e61\u8863", "public_transport": "station", "railway": "station", "station": "subway", "subway": "yes", "wikidata": "Q119890229", "wikipedia": "zh:\u7ee3\u8863\u7ad9"}}, {"type": "node", "id": 5851143326, "lat": 31.3852721, "lon": 120.9782272, "tags": {"name": "\u6606\u5c71\u57ce\u5e02\u5e7f\u573a", "name:en": "Kunshan Chengshiguangchang", "name:zh-Hant": "\u5d11\u5c71\u57ce\u5e02\u5ee3\u5834", "public_transport": "station", "railway": "station", "station": "subway", "subway": "yes", "wikidata": "Q119890230", "wikipedia": "zh:\u6606\u5c71\u57ce\u5e02\u5e7f\u573a\u7ad9"}}, {"type": "node", "id": 5851143329, "lat": 31.3859981, "lon": 121.0129481, "tags": {"name": "\u9c7c\u6c60\u6cfe", "name:en": "Yuchijing", "name:zh-Hant": "\u9b5a\u6c60\u6d87", "public_transport": "station", "railway": "station", "station": "subway", "subway": "yes", "wikidata": "Q119890233", "wikipedia": "zh:\u9c7c\u6c60\u6cfe\u7ad9"}}, {"type": "node", "id": 5851143332, "lat": 31.3797196, "lon": 121.0430261, "tags": {"name": "\u590f\u9a7e\u6cb3\u516c\u56ed", "name:en": "Xiajiahegongyuan", "name:zh-Hant": "\u590f\u99d5\u6cb3\u516c\u5712", "public_transport": "station", "railway": "station", "station": "subway", "subway": "yes", "wikidata": "Q119890236", "wikipedia": "zh:\u590f\u9a7e\u6cb3\u516c\u56ed\u7ad9"}}, {"type": "node", "id": 5851143333, "lat": 31.3668799, "lon": 121.0450512, "tags": {"name": "\u76db\u5e84", "name:en": "Shengzhuang", "name:zh-Hant": "\u76db\u838a", "public_transport": "station", "railway": "station", "station": "subway", "subway": "yes", "wikidata": "Q119890238", "wikipedia": "zh:\u76db\u5e84\u7ad9"}}, {"type": "node", "id": 5851143334, "lat": 31.3529659, "lon": 121.0450673, "tags": {"name": "\u7ae0\u57fa\u8def\u5357", "name:en": "Zhangjilu South", "public_transport": "station", "railway": "station", "station": "subway", "subway": "yes", "wikidata": "Q119890239", "wikipedia": "zh:\u7ae0\u57fa\u8def\u5357\u7ad9"}}, {"type": "node", "id": 5851143335, "lat": 31.3366465, "lon": 121.0441688, "tags": {"name": "\u590f\u6865", "name:en": "Xiaqiao", "name:zh-Hant": "\u590f\u6a4b", "public_transport": "station", "railway": "station", "station": "subway", "subway": "yes", "wikidata": "Q119890240", "wikipedia": "zh:\u590f\u6865\u7ad9"}}, {"type": "node", "id": 5851143336, "lat": 31.321674, "lon": 121.0356796, "tags": {"name": "\u795e\u7ae5\u6cfe", "name:en": "Shentongjing", "name:zh-Hant": "\u795e\u7ae5\u6d87", "public_transport": "station", "railway": "station", "station": "subway", "subway": "yes", "wheelchair": "no", "wikidata": "Q119890241", "wikipedia": "zh:\u795e\u7ae5\u6cfe\u7ad9"}}, {"type": "node", "id": 5851143337, "lat": 31.3115167, "lon": 121.0411194, "tags": {"name": "\u83c9\u846d", "name:en": "Lujia", "name:zh-Hant": "\u83c9\u846d", "public_transport": "station", "railway": "station", "station": "subway", "subway": "yes", "wheelchair": "no", "wikidata": "Q119890242", "wikipedia": "zh:\u83c9\u846d\u7ad9"}}, {"type": "node", "id": 5851143338, "lat": 31.2993586, "lon": 121.0592401, "tags": {"name": "\u82b1\u6865\u535a\u89c8\u4e2d\u5fc3", "name:en": "Huaqiao Bolanzhongxin", "name:zh-Hant": "\u82b1\u6a4b\u535a\u89bd\u4e2d\u5fc3", "public_transport": "station", "railway": "station", "station": "subway", "subway": "yes", "wikidata": "Q119890243", "wikipedia": "zh:\u82b1\u6865\u535a\u89c8\u4e2d\u5fc3\u7ad9"}}, {"type": "node", "id": 5851143340, "lat": 31.3004801, "lon": 121.0871005, "tags": {"name": "\u82b1\u6eaa\u516c\u56ed", "name:en": "Huaxigongyuan", "name:zh-Hant": "\u82b1\u6eaa\u516c\u5712", "public_transport": "station", "railway": "station", "station": "subway", "subway": "yes", "wikidata": "Q119890245", "wikipedia": "zh:\u82b1\u6eaa\u516c\u56ed\u7ad9 (\u82cf\u5dde)"}}, {"type": "node", "id": 5851143357, "lat": 31.3825131, "lon": 120.8386653, "tags": {"name": "\u9633\u6f84\u6e56\u4e1c", "name:en": "Yangchenghu East", "name:zh-Hant": "\u967d\u6f84\u6e56\u6771", "public_transport": "station", "railway": "station", "station": "subway", "subway": "yes", "wikidata": "Q119890219", "wikipedia": "zh:\u9633\u6f84\u6e56\u4e1c\u7ad9"}}, {"type": "node", "id": 5851143362, "lat": 31.3834526, "lon": 120.9134929, "tags": {"name": "\u5171\u9752", "name:en": "Gongqing", "public_transport": "station", "railway": "station", "station": "subway", "subway": "yes", "wikidata": "Q119890224", "wikipedia": "zh:\u5171\u9752\u7ad9 (\u82cf\u5dde)"}}, {"type": "node", "id": 5851143376, "lat": 31.3856165, "lon": 120.9914982, "tags": {"name": "\u91d1\u6d66\u5927\u6865\u4e1c", "name:en": "Jinpudaqiao East", "name:zh-Hant": "\u91d1\u6d66\u5927\u6a4b\u6771", "public_transport": "station", "railway": "station", "station": "subway", "subway": "yes", "wikidata": "Q119890231", "wikipedia": "zh:\u91d1\u6d66\u5927\u6865\u4e1c\u7ad9"}}, {"type": "node", "id": 5851143377, "lat": 31.3858523, "lon": 121.0016001, "tags": {"name": "\u987a\u5e06\u5317\u8def", "name:en": "Shunfan Beilu", "name:zh-Hant": "\u9806\u5e06\u5317\u8def", "public_transport": "station", "railway": "station", "station": "subway", "subway": "yes", "wikidata": "Q119890232", "wikipedia": "zh:\u987a\u5e06\u5317\u8def\u7ad9"}}, {"type": "node", "id": 5851143382, "lat": 31.3860037, "lon": 121.0240117, "tags": {"name": "\u767d\u6cb3\u6f6d", "name:en": "Baihetan", "public_transport": "station", "railway": "station", "station": "subway", "subway": "yes", "wikidata": "Q119890234", "wikipedia": "zh:\u767d\u6cb3\u6f6d\u7ad9"}}, {"type": "node", "id": 5851143384, "lat": 31.3860544, "lon": 121.035125, "tags": {"name": "\u5175\u5e0c", "name:en": "Bingxi", "public_transport": "station", "railway": "station", "station": "subway", "subway": "yes", "wikidata": "Q119890235", "wikipedia": "zh:\u5175\u5e0c\u7ad9"}}, {"type": "node", "id": 5851144324, "lat": 31.2973257, "lon": 121.0750329, "tags": {"name": "\u96c6\u5584", "name:en": "Jishan", "public_transport": "station", "railway": "station", "station": "subway", "subway": "yes", "wikidata": "Q119890244", "wikipedia": "zh:\u96c6\u5584\u7ad9"}}, {"type": "node", "id": 6172569933, "lat": 31.307953, "lon": 120.6474648, "tags": {"name": "\u5f90\u5bb6\u6d5c", "name:en": "Xujiabang", "public_transport": "station", "railway": "station", "station": "subway", "subway": "yes", "wikidata": "Q127256560", "wikipedia": "zh:\u5f90\u5bb6\u6d5c\u7ad9"}}, {"type": "node", "id": 6172569934, "lat": 31.3082373, "lon": 120.6584866, "tags": {"name": "\u60f9\u4e91\u6865", "public_transport": "station", "railway": "station", "station": "subway", "subway": "yes"}}, {"type": "node", "id": 6172569935, "lat": 31.3082418, "lon": 120.6675997, "tags": {"name": "\u79cb\u5858\u6d5c", "name:en": "Qiutangbang", "old_name": "\u661f\u6d77\u8857", "public_transport": "station", "railway": "station", "station": "subway", "subway": "yes", "wikidata": "Q127256569", "wikipedia": "zh:\u79cb\u5858\u6d5c\u7ad9"}}, {"type": "node", "id": 6172569936, "lat": 31.3114746, "lon": 120.7216572, "tags": {"name": "\u743c\u59ec\u58a9", "name:en": "Qiongjidun", "old_name": "\u4e2d\u5858\u516c\u56ed", "public_transport": "station", "railway": "station", "station": "subway", "subway": "yes"}}, {"type": "node", "id": 6172569937, "lat": 31.310601, "lon": 120.7294438, "tags": {"name": "\u5357\u65bd\u516c\u56ed\u5357", "name:en": "Nanshigongyuan South", "old_name": "\u5357\u65bd\u8857", "public_transport": "station", "railway": "station", "station": "subway", "subway": "yes", "wikidata": "Q127257411", "wikipedia": "zh:\u5357\u65bd\u516c\u56ed\u5357\u7ad9"}}, {"type": "node", "id": 6172569938, "lat": 31.3108711, "lon": 120.7515447, "tags": {"name": "\u513f\u7ae5\u533b\u9662\u603b\u9662", "old_name": "\u4e2d\u65b0\u5927\u9053\u4e1c", "public_transport": "station", "railway": "station", "station": "subway", "subway": "yes"}}, {"type": "node", "id": 6172569939, "lat": 31.3039898, "lon": 120.756735, "tags": {"name": "\u6db5\u9752\u6865", "name:en": "Hanqingqiao", "old_name": "\u6e2f\u7530\u8def", "public_transport": "station", "railway": "station", "station": "subway", "subway": "yes", "wikidata": "Q127170657"}}, {"type": "node", "id": 6172569940, "lat": 31.2959875, "lon": 120.7551919, "tags": {"name": "\u91d1\u5bb6\u5830", "name:en": "Jinjiayan", "public_transport": "station", "railway": "station", "station": "subway", "subway": "yes", "wikidata": "Q127170443"}}, {"type": "node", "id": 6172569941, "lat": 31.2877208, "lon": 120.7549295, "tags": {"name": "\u5317\u659c\u6b65", "name:en": "Beixiebu", "old_name": "\u659c\u6b65", "public_transport": "station", "railway": "station", "station": "subway", "subway": "yes"}}, {"type": "node", "id": 6172569943, "lat": 31.2753296, "lon": 120.7867394, "tags": {"construction": "station", "name": "\u534e\u4e91", "old_name": "\u65b0\u5e86\u8def", "public_transport": "station", "railway": "construction", "station": "subway", "subway": "yes"}}, {"type": "node", "id": 6898436238, "lat": 31.2436323, "lon": 120.6626838, "tags": {"name": "\u5c39\u5c71", "public_transport": "station", "railway": "station", "station": "subway", "subway": "yes"}}, {"type": "node", "id": 6898474812, "lat": 31.3427091, "lon": 120.6521201, "tags": {"name": "\u677f\u6cfe", "old_name": "\u626c\u4e1c\u8def", "public_transport": "station", "railway": "station", "station": "subway", "subway": "yes"}}, {"type": "node", "id": 6898474846, "lat": 31.2905376, "lon": 120.6613288, "tags": {"name": "\u5a04\u8451", "public_transport": "station", "railway": "station", "station": "subway", "subway": "yes"}}, {"type": "node", "id": 6898474858, "lat": 31.2811739, "lon": 120.6627606, "tags": {"name": "\u4e1c\u5174\u8def\u897f", "public_transport": "station", "railway": "station", "subway": "yes"}}, {"type": "node", "id": 7086192724, "lat": 31.3650912, "lon": 120.7733756, "tags": {"name": "\u6208\u5df7\u8857", "name:en": "Gexiangjie", "public_transport": "station", "railway": "station", "station": "subway", "subway": "yes"}}, {"type": "node", "id": 7086192725, "lat": 31.3637743, "lon": 120.7630545, "tags": {"name": "\u8451\u4ead\u5927\u9053", "name:en": "Fengting Avenue", "public_transport": "station", "railway": "station", "station": "subway", "subway": "yes"}}, {"type": "node", "id": 7089724371, "lat": 31.3190934, "lon": 120.675933, "tags": {"name": "\u4e1c\u65b9\u4e4b\u95e8", "name:en": "Dongfangzhimen", "name:zh": "\u4e1c\u65b9\u4e4b\u95e8", "name:zh-Hans": "\u4e1c\u65b9\u4e4b\u95e8", "name:zh-Hant": "\u6771\u65b9\u4e4b\u9580", "operator": "SRT", "public_transport": "station", "railway": "station", "station": "subway", "subway": "yes", "wheelchair": "limited", "wikidata": "Q5295865", "wikipedia": "zh:\u4e1c\u65b9\u4e4b\u95e8\u7ad9"}}, {"type": "node", "id": 7099200252, "lat": 31.2499957, "lon": 120.7425998, "tags": {"name": "\u8f66\u574a", "name:en": "Chefang", "public_transport": "station", "railway": "station", "station": "subway", "subway": "yes", "wikidata": "Q130265264"}}, {"type": "node", "id": 7099200253, "lat": 31.2579174, "lon": 120.7398883, "tags": {"name": "\u88d5\u65b0\u8def", "public_transport": "station", "railway": "station", "station": "subway", "subway": "yes"}}, {"type": "node", "id": 7099200255, "lat": 31.2772809, "lon": 120.7313883, "tags": {"name": "\u4ec1\u7231\u8def", "name:zh": "\u4ec1\u7231\u8def", "name:zh-Hans": "\u4ec1\u7231\u8def", "name:zh-Hant": "\u4ec1\u611b\u8def", "public_transport": "station", "railway": "station", "station": "subway", "subway": "yes"}}, {"type": "node", "id": 7099200256, "lat": 31.2881462, "lon": 120.7297629, "tags": {"name": "\u83b2\u6c60\u6865", "public_transport": "station", "railway": "station", "station": "subway", "subway": "yes"}}, {"type": "node", "id": 7099200258, "lat": 31.3189296, "lon": 120.709697, "tags": {"name": "\u82cf\u5dde\u5f53\u4ee3\u7f8e\u672f\u9986", "old_name": "\u53f3\u5cb8\u8857", "public_transport": "station", "railway": "station", "station": "subway", "subway": "yes"}}, {"type": "node", "id": 7099200260, "lat": 31.332619, "lon": 120.7081122, "tags": {"name": "\u534e\u6c60\u6d5c", "name:en": "Huachibang", "old_name": "\u897f\u6c88\u6d52\u8def\uff08\u5728\u5efa\uff09", "public_transport": "station", "railway": "station", "station": "subway", "subway": "yes"}}, {"type": "node", "id": 7099200261, "lat": 31.3476585, "lon": 120.6973323, "tags": {"name": "\u53e4\u697c", "name:en": "Gulou", "old_name": "\u5a04\u4e2d\u8def\uff08\u5728\u5efa\uff09", "public_transport": "station", "railway": "station", "station": "subway", "subway": "yes"}}, {"type": "node", "id": 7099200262, "lat": 31.3511727, "lon": 120.6695535, "tags": {"name": "\u5357\u6cfd\u5e84", "name:en": "Nanzezhuang", "old_name": "\u548c\u987a\u8def", "public_transport": "station", "railway": "station", "station": "subway", "subway": "yes"}}, {"type": "node", "id": 7099200278, "lat": 31.3750792, "lon": 120.6666523, "tags": {"name": "\u53e4\u9999\u5729", "name:en": "Guxiangwei", "old_name": "\u6d4e\u5b66\u8def", "public_transport": "station", "railway": "station", "station": "subway", "subway": "yes"}}, {"type": "node", "id": 7099206585, "lat": 31.3750293, "lon": 120.6561171, "tags": {"name": "\u4e94\u6f68\u6cfe", "name:en": "Wucongjing", "old_name": "\u5f90\u9633\u8def", "public_transport": "station", "railway": "station", "station": "subway", "subway": "yes"}}, {"type": "node", "id": 7099206586, "lat": 31.369461, "lon": 120.6433484, "tags": {"name": "\u767d\u8361\u5317", "name:en": "Baidang North", "old_name": "\u76f8\u57ce\u533a\u884c\u653f\u4e2d\u5fc3\u5357", "public_transport": "station", "railway": "station", "station": "subway", "subway": "yes"}}, {"type": "node", "id": 7099222595, "lat": 31.2591061, "lon": 120.6700069, "tags": {"name": "\u6797\u5bb6\u6f6d", "public_transport": "station", "railway": "station", "station": "subway", "subway": "yes"}}, {"type": "node", "id": 7099222609, "lat": 31.3219177, "lon": 120.6565394, "tags": {"name": "\u79ef\u7fe0\u6865", "public_transport": "station", "railway": "station", "station": "subway", "subway": "yes"}}, {"type": "node", "id": 7099222610, "lat": 31.3360698, "lon": 120.6529952, "tags": {"name": "\u6837\u6cfe", "old_name": "\u626c\u534e\u8def", "public_transport": "station", "railway": "station", "station": "subway", "subway": "yes"}}, {"type": "node", "id": 7099222613, "lat": 31.3570981, "lon": 120.6470095, "tags": {"name": "\u767d\u8361\u5357", "public_transport": "station", "railway": "station", "station": "subway", "subway": "yes"}}, {"type": "node", "id": 7099222620, "lat": 31.413859, "lon": 120.6490033, "tags": {"name": "\u5e38\u697c", "old_name": "\u9752\u9f99\u6e2f", "public_transport": "station", "railway": "station", "station": "subway", "subway": "yes"}}, {"type": "node", "id": 7099222622, "lat": 31.422728, "lon": 120.6497287, "tags": {"name": "\u96ea\u5357", "old_name": "\u4f1a\u5c55\u4e2d\u5fc3", "public_transport": "station", "railway": "construction", "station": "subway", "subway": "yes"}}, {"type": "node", "id": 7448000468, "lat": 31.3131188, "lon": 121.1524548, "tags": {"alt_name": "\u5b89\u4ead\u897f\u7ad9;Anting West;Anting West Railway Station;Antingxi Railway Station", "name": "\u5b89\u4ead\u897f", "name:en": "Antingxi", "note": "\u5b89\u4ead\u897f\u7ad9\u4e0d\u5728\u4eac\u6caa\u7ebf\u4e0a\uff0c\u8bf7\u52ff\u5c06\u672c\u7ad9\u52a0\u5165\u4eac\u6caa\u7ebf\u7684\u5173\u7cfb", "public_transport": "station", "railway": "station", "railway:ref": "16571", "train": "yes", "wikidata": "Q90765383", "wikipedia": "zh:\u5b89\u4ead\u897f\u7ad9"}}, {"type": "node", "id": 7794833429, "lat": 31.345291, "lon": 121.0466609, "tags": {"alt_name": "\u9646\u5bb6\u6d5c\u7ad9;\u9646\u5bb6\u6d5c\u706b\u8f66\u7ad9;Lujiabang Railway Station", "name": "\u9646\u5bb6\u6d5c", "name:en": "Lujiabang", "public_transport": "station", "railway": "station", "railway:ref": "30551", "train": "yes", "wikidata": "Q17033018"}}, {"type": "node", "id": 8453216529, "lat": 31.3408961, "lon": 120.7018921, "tags": {"name": "\u5916\u8de8\u5858", "public_transport": "station", "railway": "station", "railway:ref": "30539"}}, {"type": "node", "id": 8453216530, "lat": 31.3683044, "lon": 120.9535986, "tags": {"name": "\u6606\u5c71", "public_transport": "station", "railway": "station", "railway:ref": "30548"}}, {"type": "node", "id": 8887841470, "lat": 31.3636008, "lon": 120.7629987, "tags": {"name": "\u8451\u4ead\u5927\u9053", "name:en": "Fengting Avenue", "public_transport": "station", "railway": "station", "station": "subway", "subway": "yes"}}, {"type": "node", "id": 8992739373, "lat": 31.3012385, "lon": 121.0998583, "tags": {"name": "\u82b1\u6865", "name:en": "Huaqiao", "name:zh-Hant": "\u82b1\u6a4b", "public_transport": "station", "railway": "station", "station": "subway", "subway": "yes", "wikidata": "Q15079186", "wikipedia": "en:Huaqiao metro station (Kunshan)"}}, {"type": "node", "id": 9007625366, "lat": 31.3013566, "lon": 120.7298, "tags": {"name": "\u659c\u5858", "name:en": "Xietang", "public_transport": "station", "railway": "station", "station": "subway", "subway": "yes"}}, {"type": "node", "id": 9007631027, "lat": 31.3397346, "lon": 120.7588592, "tags": {"name": "\u4e1c\u6c99\u6e56", "name:en": "Dongshahu", "public_transport": "station", "railway": "station", "station": "subway", "subway": "yes", "wikidata": "Q111694131", "wikipedia": "en:Dongshahu station"}}, {"type": "node", "id": 9218083767, "lat": 31.4101421, "lon": 121.1476314, "tags": {"name": "\u592a\u4ed3\u5357", "railway": "station"}}, {"type": "node", "id": 9242148028, "lat": 31.3426521, "lon": 120.7066034, "tags": {"name": "\u82cf\u5dde\u56ed\u533a", "public_transport": "station", "railway": "station", "railway:ref": "66328", "train": "yes"}}, {"type": "node", "id": 9242148029, "lat": 31.3822528, "lon": 120.8573261, "tags": {"name": "\u9633\u6f84\u6e56", "public_transport": "station", "railway": "station", "railway:ref": "66331"}}, {"type": "node", "id": 9242148030, "lat": 31.3551464, "lon": 120.946472, "tags": {"name": "\u6606\u5c71\u5357", "public_transport": "station", "railway": "station", "railway:ref": "66334"}}, {"type": "node", "id": 10120264001, "lat": 31.0655557, "lon": 120.7949403, "tags": {"name": "\u82cf\u5dde\u5357", "name:en": "Suzhounan", "public_transport": "station", "railway": "station", "railway:ref": "32026", "train": "yes", "wikipedia": "zh:\u82cf\u5dde\u5357\u7ad9"}}, {"type": "node", "id": 11054951285, "lat": 31.2615595, "lon": 120.7212992}, {"type": "node", "id": 11054951286, "lat": 31.2617315, "lon": 120.72166}, {"type": "node", "id": 11054951287, "lat": 31.2617865, "lon": 120.7216465}, {"type": "node", "id": 11054951288, "lat": 31.2618713, "lon": 120.7218933}, {"type": "node", "id": 11054951289, "lat": 31.2619264, "lon": 120.7220583}, {"type": "node", "id": 11054951290, "lat": 31.261955, "lon": 120.7222179}, {"type": "node", "id": 11054951291, "lat": 31.2616615, "lon": 120.7223091}, {"type": "node", "id": 11054951292, "lat": 31.2617326, "lon": 120.7227905}, {"type": "node", "id": 11054951293, "lat": 31.2618043, "lon": 120.7227724}, {"type": "node", "id": 11054951294, "lat": 31.2617406, "lon": 120.7223748}, {"type": "node", "id": 11054951295, "lat": 31.2619802, "lon": 120.7223023}, {"type": "node", "id": 11054951296, "lat": 31.2622703, "lon": 120.7235724}, {"type": "node", "id": 11054951297, "lat": 31.2620249, "lon": 120.7238996}, {"type": "node", "id": 11054951298, "lat": 31.2621224, "lon": 120.7243368}, {"type": "node", "id": 11054951299, "lat": 31.2621843, "lon": 120.7243194}, {"type": "node", "id": 11054951300, "lat": 31.262088, "lon": 120.7239076}, {"type": "node", "id": 11054951301, "lat": 31.2622943, "lon": 120.7236595}, {"type": "node", "id": 11054951302, "lat": 31.2623413, "lon": 120.7238527}, {"type": "node", "id": 11054951303, "lat": 31.2623092, "lon": 120.7238634}, {"type": "node", "id": 11054951304, "lat": 31.2623482, "lon": 120.7240565}, {"type": "node", "id": 11054965805, "lat": 31.2627838, "lon": 120.7239197}, {"type": "node", "id": 11054965806, "lat": 31.2627368, "lon": 120.7237212}, {"type": "node", "id": 11054965807, "lat": 31.2632974, "lon": 120.7237226}, {"type": "node", "id": 11054965808, "lat": 31.2632963, "lon": 120.7236461}, {"type": "node", "id": 11054965809, "lat": 31.2627151, "lon": 120.7236502}, {"type": "node", "id": 11054965810, "lat": 31.2626383, "lon": 120.7236743}, {"type": "node", "id": 11054965811, "lat": 31.2625672, "lon": 120.7233417}, {"type": "node", "id": 11054965812, "lat": 31.2626211, "lon": 120.7233243}, {"type": "node", "id": 11054965813, "lat": 31.2627328, "lon": 120.7230902}, {"type": "node", "id": 11054965814, "lat": 31.2629197, "lon": 120.7230876}, {"type": "node", "id": 11054965815, "lat": 31.2629157, "lon": 120.7230071}, {"type": "node", "id": 11054965816, "lat": 31.2626807, "lon": 120.7230091}, {"type": "node", "id": 11054965817, "lat": 31.2625855, "lon": 120.7232384}, {"type": "node", "id": 11054965818, "lat": 31.2625397, "lon": 120.7232518}, {"type": "node", "id": 11054965819, "lat": 31.2623018, "lon": 120.7222259}, {"type": "node", "id": 11054965820, "lat": 31.2623178, "lon": 120.7222199}, {"type": "node", "id": 11054965821, "lat": 31.2624113, "lon": 120.7222293}, {"type": "node", "id": 11054965822, "lat": 31.2624187, "lon": 120.7221166}, {"type": "node", "id": 11054965823, "lat": 31.2623648, "lon": 120.7221092}, {"type": "node", "id": 11054965824, "lat": 31.2623075, "lon": 120.7218249}, {"type": "node", "id": 11054965825, "lat": 31.2622554, "lon": 120.7214561}, {"type": "node", "id": 11054965826, "lat": 31.2621831, "lon": 120.7214695}, {"type": "node", "id": 11054965827, "lat": 31.2622141, "lon": 120.7217136}, {"type": "node", "id": 11054965828, "lat": 31.2621877, "lon": 120.7217284}, {"type": "node", "id": 11054965829, "lat": 31.2621442, "lon": 120.7215835}, {"type": "node", "id": 11054965830, "lat": 31.2620754, "lon": 120.7213756}, {"type": "node", "id": 11054965831, "lat": 31.2622152, "lon": 120.7213046}, {"type": "node", "id": 11054965832, "lat": 31.2621098, "lon": 120.720351}, {"type": "node", "id": 11054965833, "lat": 31.2620272, "lon": 120.7203645}, {"type": "node", "id": 11054965834, "lat": 31.262127, "lon": 120.7212107}, {"type": "node", "id": 11054965835, "lat": 31.2620479, "lon": 120.7212469}, {"type": "node", "id": 11054965836, "lat": 31.2619802, "lon": 120.7210873}, {"type": "node", "id": 11055024491, "lat": 31.2503277, "lon": 120.6794634}, {"type": "node", "id": 11055024492, "lat": 31.2503197, "lon": 120.6796123}, {"type": "node", "id": 11055024493, "lat": 31.250342, "lon": 120.679613}, {"type": "node", "id": 11055024494, "lat": 31.2503288, "lon": 120.6798296}, {"type": "node", "id": 11055024495, "lat": 31.2502933, "lon": 120.6798289}, {"type": "node", "id": 11055024496, "lat": 31.2502933, "lon": 120.6798188}, {"type": "node", "id": 11055024497, "lat": 31.2502113, "lon": 120.6798135}, {"type": "node", "id": 11055024498, "lat": 31.2502268, "lon": 120.6795359}, {"type": "node", "id": 11055024499, "lat": 31.2501552, "lon": 120.6795305}, {"type": "node", "id": 11055024500, "lat": 31.250138, "lon": 120.6798778}, {"type": "node", "id": 11055024501, "lat": 31.2501964, "lon": 120.6798825}, {"type": "node", "id": 11055024502, "lat": 31.2501964, "lon": 120.6799087}, {"type": "node", "id": 11055024503, "lat": 31.2502887, "lon": 120.6799127}, {"type": "node", "id": 11055024504, "lat": 31.2502887, "lon": 120.6798946}, {"type": "node", "id": 11055024505, "lat": 31.2503203, "lon": 120.6798973}, {"type": "node", "id": 11055024506, "lat": 31.2502967, "lon": 120.6804653}, {"type": "node", "id": 11055024507, "lat": 31.2502778, "lon": 120.6804626}, {"type": "node", "id": 11055024508, "lat": 31.2501729, "lon": 120.6804062}, {"type": "node", "id": 11055024509, "lat": 31.2501259, "lon": 120.6804076}, {"type": "node", "id": 11055024510, "lat": 31.2501271, "lon": 120.6804257}, {"type": "node", "id": 11055024511, "lat": 31.2498553, "lon": 120.680429}, {"type": "node", "id": 11055024512, "lat": 31.2498536, "lon": 120.6805075}, {"type": "node", "id": 11055024513, "lat": 31.2499236, "lon": 120.6805088}, {"type": "node", "id": 11055024514, "lat": 31.2499241, "lon": 120.680541}, {"type": "node", "id": 11055024515, "lat": 31.2501322, "lon": 120.6805357}, {"type": "node", "id": 11055024516, "lat": 31.2501334, "lon": 120.6805001}, {"type": "node", "id": 11055024517, "lat": 31.2501832, "lon": 120.6804988}, {"type": "node", "id": 11055024518, "lat": 31.250291, "lon": 120.680543}, {"type": "node", "id": 11055024519, "lat": 31.2502635, "lon": 120.6812029}, {"type": "node", "id": 11055024520, "lat": 31.250236, "lon": 120.6811975}, {"type": "node", "id": 11055024521, "lat": 31.2502302, "lon": 120.6813477}, {"type": "node", "id": 11055024522, "lat": 31.2505593, "lon": 120.6813611}, {"type": "node", "id": 11055024523, "lat": 31.250557, "lon": 120.6814349}, {"type": "node", "id": 11055024524, "lat": 31.2506258, "lon": 120.6814416}, {"type": "node", "id": 11055024525, "lat": 31.2506487, "lon": 120.6809038}, {"type": "node", "id": 11055024526, "lat": 31.2505754, "lon": 120.6808998}, {"type": "node", "id": 11055024527, "lat": 31.2505673, "lon": 120.6810258}, {"type": "node", "id": 11055024528, "lat": 31.2504309, "lon": 120.6810231}, {"type": "node", "id": 11055024529, "lat": 31.2504538, "lon": 120.6805632}, {"type": "node", "id": 11055024530, "lat": 31.2506017, "lon": 120.6805725}, {"type": "node", "id": 11055024531, "lat": 31.2505926, "lon": 120.6808408}, {"type": "node", "id": 11055024532, "lat": 31.2506522, "lon": 120.6808461}, {"type": "node", "id": 11055024533, "lat": 31.2506682, "lon": 120.6804921}, {"type": "node", "id": 11055024534, "lat": 31.2504584, "lon": 120.680476}, {"type": "node", "id": 11055024535, "lat": 31.2504882, "lon": 120.6799156}, {"type": "node", "id": 11055024536, "lat": 31.2506398, "lon": 120.6799219}, {"type": "node", "id": 11055024537, "lat": 31.250645, "lon": 120.6797496}, {"type": "node", "id": 11055024538, "lat": 31.2506856, "lon": 120.6797512}, {"type": "node", "id": 11055024539, "lat": 31.2506938, "lon": 120.6794923}, {"type": "node", "id": 11055024540, "lat": 31.2504504, "lon": 120.6909554}, {"type": "node", "id": 11055024541, "lat": 31.2504498, "lon": 120.6908266}, {"type": "node", "id": 11055024542, "lat": 31.2503879, "lon": 120.6908246}, {"type": "node", "id": 11055024543, "lat": 31.2503873, "lon": 120.690895}, {"type": "node", "id": 11055024544, "lat": 31.2502675, "lon": 120.6908997}, {"type": "node", "id": 11055024545, "lat": 31.2502669, "lon": 120.6908776}, {"type": "node", "id": 11055024546, "lat": 31.2500617, "lon": 120.6908809}, {"type": "node", "id": 11055024547, "lat": 31.25006, "lon": 120.6910425}, {"type": "node", "id": 11055024548, "lat": 31.2500806, "lon": 120.6910425}, {"type": "node", "id": 11055024549, "lat": 31.2500737, "lon": 120.6913041}, {"type": "node", "id": 11055024550, "lat": 31.2499207, "lon": 120.6913054}, {"type": "node", "id": 11055024551, "lat": 31.2499253, "lon": 120.6910291}, {"type": "node", "id": 11055024552, "lat": 31.2498622, "lon": 120.6910305}, {"type": "node", "id": 11055024553, "lat": 31.2498622, "lon": 120.6913939}, {"type": "node", "id": 11055024554, "lat": 31.2500743, "lon": 120.6913926}, {"type": "node", "id": 11055024555, "lat": 31.250056, "lon": 120.6925915}, {"type": "node", "id": 11055024556, "lat": 31.250009, "lon": 120.6925942}, {"type": "node", "id": 11055024557, "lat": 31.2497178, "lon": 120.6929322}, {"type": "node", "id": 11055024558, "lat": 31.2497671, "lon": 120.6929925}, {"type": "node", "id": 11055024559, "lat": 31.2498725, "lon": 120.6928597}, {"type": "node", "id": 11055024560, "lat": 31.2498668, "lon": 120.6931548}, {"type": "node", "id": 11055024561, "lat": 31.2500583, "lon": 120.6931548}, {"type": "node", "id": 11055024562, "lat": 31.2500502, "lon": 120.6940171}, {"type": "node", "id": 11055024563, "lat": 31.2498014, "lon": 120.6940252}, {"type": "node", "id": 11055024564, "lat": 31.2497934, "lon": 120.6943256}, {"type": "node", "id": 11055024565, "lat": 31.2498244, "lon": 120.6943229}, {"type": "node", "id": 11055024566, "lat": 31.2498267, "lon": 120.6944087}, {"type": "node", "id": 11055024567, "lat": 31.2499127, "lon": 120.6944101}, {"type": "node", "id": 11055024568, "lat": 31.2499104, "lon": 120.6943618}, {"type": "node", "id": 11055024569, "lat": 31.2500617, "lon": 120.6943631}, {"type": "node", "id": 11055024570, "lat": 31.2500571, "lon": 120.6949706}, {"type": "node", "id": 11055024571, "lat": 31.2497716, "lon": 120.6949586}, {"type": "node", "id": 11055024572, "lat": 31.2497728, "lon": 120.6952482}, {"type": "node", "id": 11055024573, "lat": 31.2499688, "lon": 120.6952576}, {"type": "node", "id": 11055024574, "lat": 31.2499952, "lon": 120.6952281}, {"type": "node", "id": 11055024575, "lat": 31.2502291, "lon": 120.6952281}, {"type": "node", "id": 11055024576, "lat": 31.2502245, "lon": 120.6947279}, {"type": "node", "id": 11055024577, "lat": 31.2502715, "lon": 120.6947279}, {"type": "node", "id": 11055024578, "lat": 31.2503667, "lon": 120.6948392}, {"type": "node", "id": 11055024579, "lat": 31.2503598, "lon": 120.6953019}, {"type": "node", "id": 11055024580, "lat": 31.2504355, "lon": 120.6953032}, {"type": "node", "id": 11055024581, "lat": 31.2504401, "lon": 120.6948003}, {"type": "node", "id": 11055024582, "lat": 31.2502933, "lon": 120.6946285}, {"type": "node", "id": 11055024583, "lat": 31.2502393, "lon": 120.6946288}, {"type": "node", "id": 11055024584, "lat": 31.2502339, "lon": 120.693422}, {"type": "node", "id": 11055024585, "lat": 31.2503574, "lon": 120.6934213}, {"type": "node", "id": 11055024586, "lat": 31.2503587, "lon": 120.693721}, {"type": "node", "id": 11055024587, "lat": 31.2504398, "lon": 120.6937205}, {"type": "node", "id": 11055024588, "lat": 31.250438, "lon": 120.6933306}, {"type": "node", "id": 11055024589, "lat": 31.2502439, "lon": 120.6933318}, {"type": "node", "id": 11055024590, "lat": 31.2502419, "lon": 120.6928937}, {"type": "node", "id": 11055024591, "lat": 31.2504007, "lon": 120.6928928}, {"type": "node", "id": 11055024592, "lat": 31.2504003, "lon": 120.692802}, {"type": "node", "id": 11055024593, "lat": 31.250362, "lon": 120.6928022}, {"type": "node", "id": 11055024594, "lat": 31.2503622, "lon": 120.692858}, {"type": "node", "id": 11055024595, "lat": 31.2502493, "lon": 120.6928587}, {"type": "node", "id": 11055024596, "lat": 31.2502456, "lon": 120.6920246}, {"type": "node", "id": 11055024597, "lat": 31.2503695, "lon": 120.6920239}, {"type": "node", "id": 11055024598, "lat": 31.2503708, "lon": 120.6923289}, {"type": "node", "id": 11055024599, "lat": 31.2504334, "lon": 120.6923285}, {"type": "node", "id": 11055024600, "lat": 31.2504317, "lon": 120.6919499}, {"type": "node", "id": 11055024601, "lat": 31.2502493, "lon": 120.691951}, {"type": "node", "id": 11055024602, "lat": 31.2502467, "lon": 120.6913871}, {"type": "node", "id": 11055024603, "lat": 31.2504488, "lon": 120.6913859}, {"type": "node", "id": 11055024604, "lat": 31.2504475, "lon": 120.6910972}, {"type": "node", "id": 11055024605, "lat": 31.2505734, "lon": 120.6910965}, {"type": "node", "id": 11055024606, "lat": 31.2505727, "lon": 120.690954}, {"type": "node", "id": 11055024607, "lat": 31.2507359, "lon": 120.7007367}, {"type": "node", "id": 11055024608, "lat": 31.2505404, "lon": 120.7009513}, {"type": "node", "id": 11055024609, "lat": 31.2503374, "lon": 120.7006516}, {"type": "node", "id": 11055024610, "lat": 31.2503397, "lon": 120.7006241}, {"type": "node", "id": 11055024611, "lat": 31.2502859, "lon": 120.700549}, {"type": "node", "id": 11055024612, "lat": 31.2502681, "lon": 120.7005496}, {"type": "node", "id": 11055024613, "lat": 31.2502343, "lon": 120.700502}, {"type": "node", "id": 11055024614, "lat": 31.2501873, "lon": 120.7005007}, {"type": "node", "id": 11055024615, "lat": 31.2501999, "lon": 120.6994975}, {"type": "node", "id": 11055024616, "lat": 31.2504117, "lon": 120.6994949}, {"type": "node", "id": 11055024617, "lat": 31.2504131, "lon": 120.6990965}, {"type": "node", "id": 11055024618, "lat": 31.2503541, "lon": 120.6990945}, {"type": "node", "id": 11055024619, "lat": 31.2503552, "lon": 120.6994177}, {"type": "node", "id": 11055024620, "lat": 31.2502153, "lon": 120.6994204}, {"type": "node", "id": 11055024621, "lat": 31.2502165, "lon": 120.6992809}, {"type": "node", "id": 11055024622, "lat": 31.24972, "lon": 120.6992756}, {"type": "node", "id": 11055024623, "lat": 31.2497166, "lon": 120.6994794}, {"type": "node", "id": 11055024624, "lat": 31.2497785, "lon": 120.6994794}, {"type": "node", "id": 11055024625, "lat": 31.2497728, "lon": 120.6997597}, {"type": "node", "id": 11055024626, "lat": 31.2500285, "lon": 120.6997624}, {"type": "node", "id": 11055024627, "lat": 31.250009, "lon": 120.7018706}, {"type": "node", "id": 11055024628, "lat": 31.2501821, "lon": 120.7018666}, {"type": "node", "id": 11055024629, "lat": 31.2501867, "lon": 120.7005778}, {"type": "node", "id": 11055024630, "lat": 31.2502131, "lon": 120.7005818}, {"type": "node", "id": 11055024631, "lat": 31.2505547, "lon": 120.701082}, {"type": "node", "id": 11055024632, "lat": 31.250604, "lon": 120.7010297}, {"type": "node", "id": 11055024633, "lat": 31.2505868, "lon": 120.7010069}, {"type": "node", "id": 11055024634, "lat": 31.2507817, "lon": 120.700791}, {"type": "node", "id": 11055024635, "lat": 31.2559799, "lon": 120.7181717}, {"type": "node", "id": 11055024636, "lat": 31.255957, "lon": 120.7182951}, {"type": "node", "id": 11055024637, "lat": 31.2559776, "lon": 120.7183032}, {"type": "node", "id": 11055024638, "lat": 31.2559443, "lon": 120.7184789}, {"type": "node", "id": 11055024639, "lat": 31.2555981, "lon": 120.7184064}, {"type": "node", "id": 11055024640, "lat": 31.2556027, "lon": 120.718381}, {"type": "node", "id": 11055024641, "lat": 31.2558905, "lon": 120.7182214}, {"type": "node", "id": 11055024642, "lat": 31.2559914, "lon": 120.7178834}, {"type": "node", "id": 11055024643, "lat": 31.2559272, "lon": 120.7178539}, {"type": "node", "id": 11055024644, "lat": 31.2558331, "lon": 120.718157}, {"type": "node", "id": 11055024645, "lat": 31.2555385, "lon": 120.7183206}, {"type": "node", "id": 11055024646, "lat": 31.2555305, "lon": 120.7183863}, {"type": "node", "id": 11055024647, "lat": 31.2550237, "lon": 120.7182857}, {"type": "node", "id": 11055024648, "lat": 31.2550524, "lon": 120.7180591}, {"type": "node", "id": 11055024649, "lat": 31.2548151, "lon": 120.718035}, {"type": "node", "id": 11055024650, "lat": 31.2546672, "lon": 120.7180336}, {"type": "node", "id": 11055024651, "lat": 31.2546683, "lon": 120.7180953}, {"type": "node", "id": 11055024652, "lat": 31.2548128, "lon": 120.7180966}, {"type": "node", "id": 11055024653, "lat": 31.2549802, "lon": 120.7181168}, {"type": "node", "id": 11055024654, "lat": 31.2549584, "lon": 120.7182771}, {"type": "node", "id": 11055024655, "lat": 31.2547362, "lon": 120.718231}, {"type": "node", "id": 11055024656, "lat": 31.2547406, "lon": 120.7181986}, {"type": "node", "id": 11055024657, "lat": 31.2546156, "lon": 120.7181825}, {"type": "node", "id": 11055024658, "lat": 31.2545445, "lon": 120.718668}, {"type": "node", "id": 11055024659, "lat": 31.2545411, "lon": 120.7188155}, {"type": "node", "id": 11055024660, "lat": 31.2549515, "lon": 120.7188168}, {"type": "node", "id": 11055024661, "lat": 31.2549893, "lon": 120.7184923}, {"type": "node", "id": 11055024662, "lat": 31.2555093, "lon": 120.7185979}, {"type": "node", "id": 11055024663, "lat": 31.255499, "lon": 120.7186606}, {"type": "node", "id": 11055024664, "lat": 31.2556497, "lon": 120.7188973}, {"type": "node", "id": 11055024665, "lat": 31.255613, "lon": 120.7191937}, {"type": "node", "id": 11055024666, "lat": 31.2556887, "lon": 120.7192044}, {"type": "node", "id": 11055024667, "lat": 31.2557208, "lon": 120.7188678}, {"type": "node", "id": 11055024668, "lat": 31.2555637, "lon": 120.7186304}, {"type": "node", "id": 11055024669, "lat": 31.2555672, "lon": 120.718609}, {"type": "node", "id": 11055024670, "lat": 31.2562619, "lon": 120.7187793}, {"type": "node", "id": 11055024671, "lat": 31.2563536, "lon": 120.7182924}, {"type": "node", "id": 11055024672, "lat": 31.2622382, "lon": 120.7236783}, {"type": "node", "id": 11055024673, "lat": 31.2622175, "lon": 120.7235858}, {"type": "node", "id": 11514206363, "lat": 31.4268321, "lon": 120.6561953, "tags": {"name": "\u56fd\u9645\u4f1a\u5c55\u4e2d\u5fc3\uff08\u5728\u5efa\uff09", "public_transport": "station", "railway": "station", "station": "subway", "subway": "yes"}}, {"type": "node", "id": 12039493743, "lat": 31.2728833, "lon": 120.7665396, "tags": {"name": "\u91d1\u5c1a\u8def", "name:en": "Jinshang Lu", "public_transport": "station", "railway": "station", "station": "subway", "subway": "yes"}}, {"type": "node", "id": 12039493744, "lat": 31.2724336, "lon": 120.7660732, "tags": {"name": "\u91d1\u5c1a\u8def", "name:en": "Jinshang Lu", "public_transport": "station", "railway": "station", "station": "subway", "subway": "yes"}}, {"type": "node", "id": 12039493745, "lat": 31.2767296, "lon": 120.7565957, "tags": {"name": "\u5357\u659c\u6b65", "name:en": "Nanxiebu", "old_name": "\u65b0\u660c\u8def", "public_transport": "station", "railway": "station", "station": "subway", "subway": "yes", "wikidata": "Q127170111", "wikipedia": "zh:\u5357\u659c\u6b65\u7ad9"}}, {"type": "node", "id": 12039493747, "lat": 31.2742994, "lon": 120.776861, "tags": {"name": "\u6851\u7530\u5c9b", "name:en": "Sangtian Dao", "public_transport": "station", "railway": "station", "station": "subway", "subway": "yes", "wikidata": "Q15926341"}}, {"type": "node", "id": 12074652872, "lat": 31.3106436, "lon": 120.7215982, "tags": {"name": "\u743c\u59ec\u58a9", "name:en": "Qiongjidun", "public_transport": "station", "railway": "station", "station": "subway", "subway": "yes"}}, {"type": "node", "id": 12074652877, "lat": 31.3081715, "lon": 120.6600443, "tags": {"name": "\u60f9\u4e91\u6865", "public_transport": "station", "railway": "station", "station": "subway", "subway": "yes"}}, {"type": "node", "id": 12167817374, "lat": 31.324613, "lon": 120.7086847, "tags": {"name": "\u65f6\u4ee3\u5e7f\u573a", "name:en": "Shidaiguangchang", "operator": "SRT", "public_transport": "station", "railway": "station", "station": "subway", "subway": "yes"}}, {"type": "node", "id": 12241806356, "lat": 31.0726117, "lon": 120.9598944, "tags": {"name": "\u897f\u5c91", "name:en": "Xicen", "name:zh": "\u897f\u5c91", "public_transport": "station", "railway": "station", "station": "subway", "subway": "yes", "wikidata": "Q111225546"}}, {"type": "node", "id": 12299823334, "lat": 31.4227901, "lon": 120.6497707, "tags": {"name": "\u96ea\u5357", "old_name": "\u4f1a\u5c55\u4e2d\u5fc3", "public_transport": "station", "railway": "construction", "station": "subway", "subway": "yes"}}, {"type": "node", "id": 12299823545, "lat": 31.4226659, "lon": 120.6496867, "tags": {"name": "\u96ea\u5357", "old_name": "\u4f1a\u5c55\u4e2d\u5fc3", "public_transport": "station", "railway": "construction", "station": "subway", "subway": "yes"}}, {"type": "node", "id": 12326986400, "lat": 31.0657741, "lon": 120.7950447, "tags": {"name": "\u82cf\u5dde\u5357\u7ad9", "name:en": "Suzhounan Railway Station", "note": "10\u53f7\u7ebf -- For Line 10", "public_transport": "station", "railway": "station", "station": "subway", "subway": "yes"}}, {"type": "node", "id": 12326998463, "lat": 31.065554, "lon": 120.7947784, "tags": {"name": "\u82cf\u5dde\u5357\u7ad9", "name:en": "Suzhounan Railway Station", "note": "\u6c34\u4e61\u65c5\u6e38\u7ebf -- For Line \u6c34\u4e61\u65c5\u6e38", "public_transport": "station", "railway": "station", "train": "yes"}}, {"type": "node", "id": 12328840948, "lat": 31.3114382, "lon": 120.7207654}, {"type": "node", "id": 12328840949, "lat": 31.3114874, "lon": 120.7207708}, {"type": "node", "id": 12328840950, "lat": 31.3110188, "lon": 120.7206535}, {"type": "node", "id": 12328840951, "lat": 31.3110188, "lon": 120.7206454}, {"type": "node", "id": 12328840952, "lat": 31.310977, "lon": 120.7205757}, {"type": "node", "id": 12328840953, "lat": 31.3109598, "lon": 120.7205515}, {"type": "node", "id": 12328840954, "lat": 31.3109438, "lon": 120.7205388}, {"type": "node", "id": 12328840955, "lat": 31.3109191, "lon": 120.7205348}, {"type": "node", "id": 12328840956, "lat": 31.3107186, "lon": 120.7205361}, {"type": "node", "id": 12328840957, "lat": 31.3107175, "lon": 120.7204503}, {"type": "node", "id": 12328840958, "lat": 31.3108676, "lon": 120.7204463}, {"type": "node", "id": 12328840959, "lat": 31.3108561, "lon": 120.7203256}, {"type": "node", "id": 12328840960, "lat": 31.310698, "lon": 120.7203497}, {"type": "node", "id": 12328840961, "lat": 31.310698, "lon": 120.7208338}, {"type": "node", "id": 12328840962, "lat": 31.3107862, "lon": 120.7208285}, {"type": "node", "id": 12328840963, "lat": 31.3110154, "lon": 120.7206595}, {"type": "node", "id": 12328840964, "lat": 31.3112789, "lon": 120.720292}, {"type": "node", "id": 12328840965, "lat": 31.3112915, "lon": 120.7203698}, {"type": "node", "id": 12328840966, "lat": 31.3113053, "lon": 120.7204396}, {"type": "node", "id": 12328840967, "lat": 31.3113408, "lon": 120.7205133}, {"type": "node", "id": 12328840968, "lat": 31.3113969, "lon": 120.7205576}, {"type": "node", "id": 12328840969, "lat": 31.311484, "lon": 120.7206099}, {"type": "node", "id": 12328840970, "lat": 31.3115825, "lon": 120.7206474}, {"type": "node", "id": 12328840971, "lat": 31.3116834, "lon": 120.7206823}, {"type": "node", "id": 12328840972, "lat": 31.3117533, "lon": 120.7204838}, {"type": "node", "id": 12328840973, "lat": 31.3117518, "lon": 120.7204319}, {"type": "node", "id": 12328840974, "lat": 31.3116387, "lon": 120.7204446}, {"type": "node", "id": 12328840975, "lat": 31.3116352, "lon": 120.7204018}, {"type": "node", "id": 12328840976, "lat": 31.3114496, "lon": 120.7204227}, {"type": "node", "id": 12328840977, "lat": 31.3114427, "lon": 120.7203389}, {"type": "node", "id": 12328840978, "lat": 31.3117426, "lon": 120.7203051}, {"type": "node", "id": 12328840979, "lat": 31.3117368, "lon": 120.7202344}, {"type": "node", "id": 12328840980, "lat": 31.3112531, "lon": 120.7194116}, {"type": "node", "id": 12328840981, "lat": 31.3112514, "lon": 120.7194974}, {"type": "node", "id": 12328840982, "lat": 31.3114491, "lon": 120.7194867}, {"type": "node", "id": 12328840983, "lat": 31.3115132, "lon": 120.7202102}, {"type": "node", "id": 12328840984, "lat": 31.3113763, "lon": 120.7202256}, {"type": "node", "id": 12328840985, "lat": 31.3109191, "lon": 120.7202719}, {"type": "node", "id": 12328840986, "lat": 31.3109048, "lon": 120.7202619}, {"type": "node", "id": 12328840987, "lat": 31.3109025, "lon": 120.7201968}, {"type": "node", "id": 12328840988, "lat": 31.3105004, "lon": 120.7202324}, {"type": "node", "id": 12328840989, "lat": 31.3105187, "lon": 120.7203839}, {"type": "node", "id": 12328840990, "lat": 31.3105256, "lon": 120.7209156}, {"type": "node", "id": 12328840991, "lat": 31.3102082, "lon": 120.7209042}, {"type": "node", "id": 12328840992, "lat": 31.3102105, "lon": 120.7204127}, {"type": "node", "id": 12328840993, "lat": 31.3101778, "lon": 120.7198066}, {"type": "node", "id": 12328840994, "lat": 31.3099555, "lon": 120.7198159}, {"type": "node", "id": 12328840995, "lat": 31.3099538, "lon": 120.7198944}, {"type": "node", "id": 12328840996, "lat": 31.3101371, "lon": 120.719887}, {"type": "node", "id": 12328840997, "lat": 31.3101669, "lon": 120.7203712}, {"type": "node", "id": 12328840998, "lat": 31.3101274, "lon": 120.7203698}, {"type": "node", "id": 12328840999, "lat": 31.310124, "lon": 120.7205415}, {"type": "node", "id": 12328841000, "lat": 31.3101664, "lon": 120.7205462}, {"type": "node", "id": 12328862601, "lat": 31.3101578, "lon": 120.7209069}, {"type": "node", "id": 12328862602, "lat": 31.3101102, "lon": 120.7209042}, {"type": "node", "id": 12328862603, "lat": 31.3101051, "lon": 120.7211396}, {"type": "node", "id": 12328862604, "lat": 31.3101646, "lon": 120.7211403}, {"type": "node", "id": 12328862605, "lat": 31.3101669, "lon": 120.7209747}, {"type": "node", "id": 12328862606, "lat": 31.3105273, "lon": 120.7209807}, {"type": "node", "id": 12328862607, "lat": 31.3105296, "lon": 120.7218081}, {"type": "node", "id": 12328862608, "lat": 31.3106533, "lon": 120.7218128}, {"type": "node", "id": 12328862609, "lat": 31.3106533, "lon": 120.7223479}, {"type": "node", "id": 12328862610, "lat": 31.3109753, "lon": 120.7223386}, {"type": "node", "id": 12328862611, "lat": 31.3109736, "lon": 120.7222601}, {"type": "node", "id": 12328862612, "lat": 31.3107077, "lon": 120.7222661}, {"type": "node", "id": 12328862613, "lat": 31.310698, "lon": 120.722179}, {"type": "node", "id": 12328862614, "lat": 31.3106974, "lon": 120.7217954}, {"type": "node", "id": 12328862615, "lat": 31.3107679, "lon": 120.7217954}, {"type": "node", "id": 12328862616, "lat": 31.310769, "lon": 120.72166}, {"type": "node", "id": 12328862617, "lat": 31.3107221, "lon": 120.7216626}, {"type": "node", "id": 12328862618, "lat": 31.3107221, "lon": 120.7217277}, {"type": "node", "id": 12328862619, "lat": 31.3106963, "lon": 120.7217304}, {"type": "node", "id": 12328862620, "lat": 31.3107003, "lon": 120.7209921}, {"type": "node", "id": 12328862621, "lat": 31.3107587, "lon": 120.7209934}, {"type": "node", "id": 12328862622, "lat": 31.3108527, "lon": 120.7209156}, {"type": "node", "id": 12328862623, "lat": 31.3109856, "lon": 120.7208432}, {"type": "node", "id": 12328862624, "lat": 31.3111277, "lon": 120.7207936}, {"type": "node", "id": 12328862625, "lat": 31.3111449, "lon": 120.7208902}, {"type": "node", "id": 12328862626, "lat": 31.3111907, "lon": 120.7208781}, {"type": "node", "id": 12328862627, "lat": 31.3112354, "lon": 120.7208848}, {"type": "node", "id": 12328862628, "lat": 31.3112755, "lon": 120.7208996}, {"type": "node", "id": 12328862629, "lat": 31.3113179, "lon": 120.7209304}, {"type": "node", "id": 12328862630, "lat": 31.3113797, "lon": 120.7207628}, {"type": "node", "id": 12328862631, "lat": 31.3115699, "lon": 120.7207909}, {"type": "node", "id": 12328862632, "lat": 31.311633, "lon": 120.7208258}, {"type": "node", "id": 12328862633, "lat": 31.3115172, "lon": 120.721157}, {"type": "node", "id": 12328862634, "lat": 31.3115997, "lon": 120.7212013}, {"type": "node", "id": 12328862635, "lat": 31.3114519, "lon": 120.7216264}, {"type": "node", "id": 12328862636, "lat": 31.3115115, "lon": 120.7216626}, {"type": "node", "id": 12328862637, "lat": 31.3119721, "lon": 120.7203618}, {"type": "node", "id": 12328862638, "lat": 31.311869, "lon": 120.7203081}, {"type": "node", "id": 12328862639, "lat": 31.3118575, "lon": 120.7201719}, {"type": "node", "id": 12328862640, "lat": 31.3115579, "lon": 120.720207}, {"type": "node", "id": 12328862641, "lat": 31.3114892, "lon": 120.7194028}, {"type": "node", "id": 12331211071, "lat": 31.2878511, "lon": 120.7295859}, {"type": "node", "id": 12331211072, "lat": 31.2878505, "lon": 120.7295497}, {"type": "node", "id": 12331211073, "lat": 31.2879307, "lon": 120.7294102}, {"type": "node", "id": 12331211074, "lat": 31.2879302, "lon": 120.7291199}, {"type": "node", "id": 12331211075, "lat": 31.2878539, "lon": 120.7291205}, {"type": "node", "id": 12331211076, "lat": 31.2878574, "lon": 120.7293975}, {"type": "node", "id": 12331211077, "lat": 31.2877852, "lon": 120.7295322}, {"type": "node", "id": 12331211078, "lat": 31.2877852, "lon": 120.7295872}, {"type": "node", "id": 12331211079, "lat": 31.2876969, "lon": 120.7295892}, {"type": "node", "id": 12331211080, "lat": 31.2876929, "lon": 120.7298011}, {"type": "node", "id": 12331211081, "lat": 31.2877943, "lon": 120.7297978}, {"type": "node", "id": 12331211082, "lat": 31.2877949, "lon": 120.7301921}, {"type": "node", "id": 12331211083, "lat": 31.2878408, "lon": 120.730245}, {"type": "node", "id": 12331211084, "lat": 31.2878436, "lon": 120.7304093}, {"type": "node", "id": 12331211085, "lat": 31.2879004, "lon": 120.7304093}, {"type": "node", "id": 12331211086, "lat": 31.2878998, "lon": 120.7302175}, {"type": "node", "id": 12331211087, "lat": 31.2878534, "lon": 120.7301579}, {"type": "node", "id": 12331211088, "lat": 31.2878505, "lon": 120.7297985}, {"type": "node", "id": 12331211089, "lat": 31.2884453, "lon": 120.7297783}, {"type": "node", "id": 12331211090, "lat": 31.288451, "lon": 120.7301518}, {"type": "node", "id": 12331211091, "lat": 31.2883771, "lon": 120.730245}, {"type": "node", "id": 12331211092, "lat": 31.2883737, "lon": 120.7305944}, {"type": "node", "id": 12331211093, "lat": 31.2884333, "lon": 120.7305924}, {"type": "node", "id": 12331211094, "lat": 31.2884316, "lon": 120.7302839}, {"type": "node", "id": 12331211095, "lat": 31.2885152, "lon": 120.7301807}, {"type": "node", "id": 12331211096, "lat": 31.2885106, "lon": 120.7295671}, {"type": "node", "id": 12331211097, "lat": 31.2774734, "lon": 120.730585}, {"type": "node", "id": 12331211098, "lat": 31.277501, "lon": 120.7311188}, {"type": "node", "id": 12331211099, "lat": 31.2775233, "lon": 120.7311724}, {"type": "node", "id": 12331211100, "lat": 31.27698, "lon": 120.7314266}, {"type": "node", "id": 12331214920, "lat": 31.3014793, "lon": 120.7300759}, {"type": "node", "id": 12331214921, "lat": 31.3014778, "lon": 120.7302415}, {"type": "node", "id": 12331214922, "lat": 31.3016084, "lon": 120.7302432}, {"type": "node", "id": 12331214923, "lat": 31.3016099, "lon": 120.7300775}, {"type": "node", "id": 12331214924, "lat": 31.3016226, "lon": 120.7294089}, {"type": "node", "id": 12331214925, "lat": 31.3014983, "lon": 120.7294109}, {"type": "node", "id": 12331214926, "lat": 31.301494, "lon": 120.7295896}, {"type": "node", "id": 12331214927, "lat": 31.3015811, "lon": 120.7296925}, {"type": "node", "id": 12331214928, "lat": 31.3022496, "lon": 120.7296898}, {"type": "node", "id": 12331214929, "lat": 31.3022498, "lon": 120.7295914}, {"type": "node", "id": 12331214930, "lat": 31.3026159, "lon": 120.7295925}, {"type": "node", "id": 12331214931, "lat": 31.3026158, "lon": 120.7296521}, {"type": "node", "id": 12331214932, "lat": 31.3023056, "lon": 120.7296511}, {"type": "node", "id": 12331214933, "lat": 31.3023055, "lon": 120.7296888}, {"type": "node", "id": 12331214934, "lat": 31.3023245, "lon": 120.7296888}, {"type": "node", "id": 12331214935, "lat": 31.3023239, "lon": 120.7299393}, {"type": "node", "id": 12331214936, "lat": 31.3023063, "lon": 120.7299392}, {"type": "node", "id": 12331214937, "lat": 31.302306, "lon": 120.7300931}, {"type": "node", "id": 12331214938, "lat": 31.3025584, "lon": 120.7300939}, {"type": "node", "id": 12331214939, "lat": 31.3025581, "lon": 120.7301956}, {"type": "node", "id": 12331214940, "lat": 31.302238, "lon": 120.7301946}, {"type": "node", "id": 12331214941, "lat": 31.3022386, "lon": 120.7299418}, {"type": "node", "id": 12331214942, "lat": 31.3016723, "lon": 120.7299401}, {"type": "node", "id": 12331214943, "lat": 31.3016704, "lon": 120.7308054}, {"type": "node", "id": 12331214944, "lat": 31.301606, "lon": 120.7308052}, {"type": "node", "id": 12331214945, "lat": 31.3016071, "lon": 120.730315}, {"type": "node", "id": 12331214946, "lat": 31.3014743, "lon": 120.7303146}, {"type": "node", "id": 12331214947, "lat": 31.3014742, "lon": 120.7303412}, {"type": "node", "id": 12331214948, "lat": 31.3012788, "lon": 120.7303406}, {"type": "node", "id": 12331214949, "lat": 31.301279, "lon": 120.7302599}, {"type": "node", "id": 12331214950, "lat": 31.3009901, "lon": 120.730259}, {"type": "node", "id": 12331214951, "lat": 31.3009895, "lon": 120.7305516}, {"type": "node", "id": 12331214952, "lat": 31.3009401, "lon": 120.7305514}, {"type": "node", "id": 12331214953, "lat": 31.300941, "lon": 120.7301869}, {"type": "node", "id": 12331214954, "lat": 31.301243, "lon": 120.7301878}, {"type": "node", "id": 12331214955, "lat": 31.3012442, "lon": 120.7296808}, {"type": "node", "id": 12331214956, "lat": 31.3012105, "lon": 120.7296807}, {"type": "node", "id": 12331214957, "lat": 31.3012108, "lon": 120.7295462}, {"type": "node", "id": 12331214958, "lat": 31.3006454, "lon": 120.7295444}, {"type": "node", "id": 12331214959, "lat": 31.3006456, "lon": 120.7294409}, {"type": "node", "id": 12331214960, "lat": 31.3009449, "lon": 120.7294418}, {"type": "node", "id": 12331214961, "lat": 31.3009448, "lon": 120.7294667}, {"type": "node", "id": 12331214962, "lat": 31.3012846, "lon": 120.7294677}, {"type": "node", "id": 12331214963, "lat": 31.3012841, "lon": 120.7296878}, {"type": "node", "id": 12331214964, "lat": 31.3013059, "lon": 120.7296879}, {"type": "node", "id": 12331214965, "lat": 31.3013068, "lon": 120.729312}, {"type": "node", "id": 12331214966, "lat": 31.3015089, "lon": 120.7293126}, {"type": "node", "id": 12331214967, "lat": 31.3015089, "lon": 120.7293383}, {"type": "node", "id": 12331214968, "lat": 31.3016238, "lon": 120.7293383}, {"type": "node", "id": 12331216101, "lat": 31.2768849, "lon": 120.7311798}, {"type": "node", "id": 12331216102, "lat": 31.2765714, "lon": 120.7313219}, {"type": "node", "id": 12331216103, "lat": 31.2765874, "lon": 120.7313783}, {"type": "node", "id": 12331216104, "lat": 31.276843, "lon": 120.7312676}, {"type": "node", "id": 12331216105, "lat": 31.2770299, "lon": 120.7317645}, {"type": "node", "id": 12331216106, "lat": 31.2770855, "lon": 120.7317384}, {"type": "node", "id": 12331216107, "lat": 31.2770459, "lon": 120.731611}, {"type": "node", "id": 12331216108, "lat": 31.2775921, "lon": 120.7313528}, {"type": "node", "id": 12331216109, "lat": 31.2776259, "lon": 120.7314433}, {"type": "node", "id": 12331216110, "lat": 31.2775818, "lon": 120.7320039}, {"type": "node", "id": 12331216111, "lat": 31.2775875, "lon": 120.7323432}, {"type": "node", "id": 12331216112, "lat": 31.2776591, "lon": 120.7323392}, {"type": "node", "id": 12331216113, "lat": 31.2776494, "lon": 120.7319818}, {"type": "node", "id": 12331216114, "lat": 31.2776992, "lon": 120.7314326}, {"type": "node", "id": 12331216115, "lat": 31.2775755, "lon": 120.7311}, {"type": "node", "id": 12331216116, "lat": 31.2775514, "lon": 120.7305783}, {"type": "node", "id": 12331216122, "lat": 31.265979, "lon": 120.7364859}, {"type": "node", "id": 12331216123, "lat": 31.2659399, "lon": 120.7365952}, {"type": "node", "id": 12331216124, "lat": 31.2657921, "lon": 120.7366624}, {"type": "node", "id": 12331216125, "lat": 31.2658322, "lon": 120.7367832}, {"type": "node", "id": 12331216126, "lat": 31.2660446, "lon": 120.7366866}, {"type": "node", "id": 12331216127, "lat": 31.2659911, "lon": 120.7365254}, {"type": "node", "id": 12331216128, "lat": 31.2660469, "lon": 120.7365}, {"type": "node", "id": 12331216129, "lat": 31.2660347, "lon": 120.7364622}, {"type": "node", "id": 12331216130, "lat": 31.2655959, "lon": 120.7340135}, {"type": "node", "id": 12331216131, "lat": 31.2657283, "lon": 120.7345098}, {"type": "node", "id": 12331216132, "lat": 31.2654056, "lon": 120.7346673}, {"type": "node", "id": 12331216133, "lat": 31.26573, "lon": 120.7355987}, {"type": "node", "id": 12331216134, "lat": 31.2655592, "lon": 120.7356772}, {"type": "node", "id": 12331216135, "lat": 31.2654698, "lon": 120.7354271}, {"type": "node", "id": 12331216136, "lat": 31.2654147, "lon": 120.7354465}, {"type": "node", "id": 12331216137, "lat": 31.2655202, "lon": 120.7357804}, {"type": "node", "id": 12331216138, "lat": 31.2657609, "lon": 120.7356732}, {"type": "node", "id": 12331216139, "lat": 31.2658962, "lon": 120.7360688}, {"type": "node", "id": 12331216140, "lat": 31.2658251, "lon": 120.7361097}, {"type": "node", "id": 12331216141, "lat": 31.2658188, "lon": 120.7363578}, {"type": "node", "id": 12331216142, "lat": 31.2649803, "lon": 120.7367675}, {"type": "node", "id": 12331216143, "lat": 31.2648949, "lon": 120.7365147}, {"type": "node", "id": 12331216144, "lat": 31.2646541, "lon": 120.7365972}, {"type": "node", "id": 12331216145, "lat": 31.2646753, "lon": 120.7366689}, {"type": "node", "id": 12331216146, "lat": 31.2648513, "lon": 120.7366005}, {"type": "node", "id": 12331216147, "lat": 31.2649178, "lon": 120.736797}, {"type": "node", "id": 12331216148, "lat": 31.2648903, "lon": 120.7368097}, {"type": "node", "id": 12331216149, "lat": 31.2649562, "lon": 120.7370297}, {"type": "node", "id": 12331216150, "lat": 31.2649992, "lon": 120.7370129}, {"type": "node", "id": 12331216151, "lat": 31.2650118, "lon": 120.7370646}, {"type": "node", "id": 12331216152, "lat": 31.2647499, "lon": 120.7371685}, {"type": "node", "id": 12331216153, "lat": 31.2647665, "lon": 120.737249}, {"type": "node", "id": 12331216154, "lat": 31.2650989, "lon": 120.7371236}, {"type": "node", "id": 12331216155, "lat": 31.2650588, "lon": 120.7369915}, {"type": "node", "id": 12331216156, "lat": 31.2657145, "lon": 120.736687}, {"type": "node", "id": 12331216157, "lat": 31.2658784, "lon": 120.737149}, {"type": "node", "id": 12331216158, "lat": 31.266063, "lon": 120.7375822}, {"type": "node", "id": 12331216159, "lat": 31.2661249, "lon": 120.7375474}, {"type": "node", "id": 12331216160, "lat": 31.2659426, "lon": 120.7371169}, {"type": "node", "id": 12331216161, "lat": 31.2658498, "lon": 120.736854}, {"type": "node", "id": 12331216162, "lat": 31.2661295, "lon": 120.7367192}, {"type": "node", "id": 12331216163, "lat": 31.2660979, "lon": 120.7366327}, {"type": "node", "id": 12331216164, "lat": 31.2662229, "lon": 120.736571}, {"type": "node", "id": 12331216165, "lat": 31.2662756, "lon": 120.7367286}, {"type": "node", "id": 12331216166, "lat": 31.2670574, "lon": 120.7363531}, {"type": "node", "id": 12331216167, "lat": 31.2670345, "lon": 120.7362834}, {"type": "node", "id": 12331216168, "lat": 31.2663639, "lon": 120.7366052}, {"type": "node", "id": 12331216169, "lat": 31.266271, "lon": 120.7365449}, {"type": "node", "id": 12331216170, "lat": 31.2659322, "lon": 120.7355856}, {"type": "node", "id": 12331216171, "lat": 31.2660628, "lon": 120.7355267}, {"type": "node", "id": 12331216172, "lat": 31.2661135, "lon": 120.7356806}, {"type": "node", "id": 12331216173, "lat": 31.2661987, "lon": 120.7356423}, {"type": "node", "id": 12331216174, "lat": 31.2661241, "lon": 120.7354155}, {"type": "node", "id": 12331216175, "lat": 31.2659136, "lon": 120.7355103}, {"type": "node", "id": 12331216176, "lat": 31.2658811, "lon": 120.7354116}, {"type": "node", "id": 12331216177, "lat": 31.2658252, "lon": 120.7354368}, {"type": "node", "id": 12331216178, "lat": 31.2658007, "lon": 120.7353623}, {"type": "node", "id": 12331216179, "lat": 31.2657148, "lon": 120.735401}, {"type": "node", "id": 12331216180, "lat": 31.2654852, "lon": 120.7347035}, {"type": "node", "id": 12331216181, "lat": 31.2658083, "lon": 120.7345474}, {"type": "node", "id": 12331216182, "lat": 31.2656503, "lon": 120.7339962}, {"type": "node", "id": 12331216183, "lat": 31.2580916, "lon": 120.7390541}, {"type": "node", "id": 12331216184, "lat": 31.2582464, "lon": 120.7396281}, {"type": "node", "id": 12331216185, "lat": 31.2576961, "lon": 120.7398453}, {"type": "node", "id": 12331216186, "lat": 31.2576675, "lon": 120.739738}, {"type": "node", "id": 12331216187, "lat": 31.2572834, "lon": 120.7389964}, {"type": "node", "id": 12331216188, "lat": 31.2572272, "lon": 120.7390366}, {"type": "node", "id": 12331216189, "lat": 31.2575798, "lon": 120.7396904}, {"type": "node", "id": 12331216190, "lat": 31.2576325, "lon": 120.7398695}, {"type": "node", "id": 12331216191, "lat": 31.2576124, "lon": 120.7398802}, {"type": "node", "id": 12331216192, "lat": 31.2576766, "lon": 120.7400841}, {"type": "node", "id": 12331216193, "lat": 31.2576955, "lon": 120.7400767}, {"type": "node", "id": 12331216194, "lat": 31.2577466, "lon": 120.7402705}, {"type": "node", "id": 12331216195, "lat": 31.2578944, "lon": 120.7405467}, {"type": "node", "id": 12331216196, "lat": 31.2578841, "lon": 120.7405843}, {"type": "node", "id": 12331216197, "lat": 31.2579495, "lon": 120.7407868}, {"type": "node", "id": 12331216198, "lat": 31.2580332, "lon": 120.7407439}, {"type": "node", "id": 12331216199, "lat": 31.2579736, "lon": 120.7405427}, {"type": "node", "id": 12331216200, "lat": 31.2578085, "lon": 120.7402316}, {"type": "node", "id": 12331216201, "lat": 31.257761, "lon": 120.7400544}, {"type": "node", "id": 12331216202, "lat": 31.2583803, "lon": 120.7398068}, {"type": "node", "id": 12331216203, "lat": 31.2583206, "lon": 120.7396023}, {"type": "node", "id": 12331216204, "lat": 31.2583101, "lon": 120.7396064}, {"type": "node", "id": 12331216205, "lat": 31.2583048, "lon": 120.7395882}, {"type": "node", "id": 12331216206, "lat": 31.2586599, "lon": 120.7394463}, {"type": "node", "id": 12331216207, "lat": 31.2586395, "lon": 120.7393763}, {"type": "node", "id": 12331216208, "lat": 31.258281, "lon": 120.7395196}, {"type": "node", "id": 12331216209, "lat": 31.2581609, "lon": 120.7391086}, {"type": "node", "id": 12331216210, "lat": 31.2583013, "lon": 120.7390525}, {"type": "node", "id": 12331216211, "lat": 31.25828, "lon": 120.7389798}, {"type": "node", "id": 12331216212, "lat": 31.2502761, "lon": 120.7433309}, {"type": "node", "id": 12331216213, "lat": 31.250369, "lon": 120.74365}, {"type": "node", "id": 12331216214, "lat": 31.2503145, "lon": 120.7436728}, {"type": "node", "id": 12331216215, "lat": 31.2502016, "lon": 120.7433154}, {"type": "node", "id": 12331216216, "lat": 31.2505604, "lon": 120.7427582}, {"type": "node", "id": 12331216217, "lat": 31.2505513, "lon": 120.7426556}, {"type": "node", "id": 12331216218, "lat": 31.2498903, "lon": 120.7427676}, {"type": "node", "id": 12331216219, "lat": 31.2498926, "lon": 120.7428166}, {"type": "node", "id": 12331216220, "lat": 31.2498175, "lon": 120.7429238}, {"type": "node", "id": 12331216221, "lat": 31.2494409, "lon": 120.7430412}, {"type": "node", "id": 12331216222, "lat": 31.2494271, "lon": 120.7429808}, {"type": "node", "id": 12331216223, "lat": 31.2497908, "lon": 120.7428655}, {"type": "node", "id": 12331216224, "lat": 31.2498307, "lon": 120.7428072}, {"type": "node", "id": 12331216225, "lat": 31.2498272, "lon": 120.742774}, {"type": "node", "id": 12331216226, "lat": 31.2498152, "lon": 120.7427756}, {"type": "node", "id": 12331216227, "lat": 31.2497926, "lon": 120.742555}, {"type": "node", "id": 12331216228, "lat": 31.2498055, "lon": 120.742551}, {"type": "node", "id": 12331216229, "lat": 31.249804, "lon": 120.7425299}, {"type": "node", "id": 12331216230, "lat": 31.2497435, "lon": 120.742325}, {"type": "node", "id": 12331216231, "lat": 31.2494844, "lon": 120.7424162}, {"type": "node", "id": 12331216232, "lat": 31.2494701, "lon": 120.7423512}, {"type": "node", "id": 12331216233, "lat": 31.2497779, "lon": 120.7422332}, {"type": "node", "id": 12331216234, "lat": 31.2498645, "lon": 120.7425158}, {"type": "node", "id": 12331216235, "lat": 31.2498669, "lon": 120.7425559}, {"type": "node", "id": 12331216236, "lat": 31.2505222, "lon": 120.7424496}, {"type": "node", "id": 12331216237, "lat": 31.250495, "lon": 120.74222}, {"type": "node", "id": 12331216238, "lat": 31.2502199, "lon": 120.7422646}, {"type": "node", "id": 12331216239, "lat": 31.2502113, "lon": 120.7421913}, {"type": "node", "id": 12331216240, "lat": 31.2506361, "lon": 120.7427701}, {"type": "node", "id": 12331216241, "lat": 31.2506207, "lon": 120.7426403}, {"type": "node", "id": 12331216242, "lat": 31.2506873, "lon": 120.7426295}, {"type": "node", "id": 12331216243, "lat": 31.250663, "lon": 120.7424244}, {"type": "node", "id": 12331216244, "lat": 31.2505972, "lon": 120.7424351}, {"type": "node", "id": 12331216245, "lat": 31.2505616, "lon": 120.7421345}, {"type": "node", "id": 12331279651, "lat": 31.3193351, "lon": 120.7090247}, {"type": "node", "id": 12331279652, "lat": 31.31944, "lon": 120.7093969}, {"type": "node", "id": 12331279653, "lat": 31.317793, "lon": 120.7100339}, {"type": "node", "id": 12331279654, "lat": 31.3178096, "lon": 120.7101198}, {"type": "node", "id": 12331279655, "lat": 31.3182765, "lon": 120.7099592}, {"type": "node", "id": 12331279656, "lat": 31.3183036, "lon": 120.7100491}, {"type": "node", "id": 12331279657, "lat": 31.3183584, "lon": 120.7100339}, {"type": "node", "id": 12331279658, "lat": 31.3183779, "lon": 120.7101016}, {"type": "node", "id": 12331279659, "lat": 31.3182267, "lon": 120.710162}, {"type": "node", "id": 12331279660, "lat": 31.3182467, "lon": 120.7102304}, {"type": "node", "id": 12331279661, "lat": 31.3183991, "lon": 120.7101654}, {"type": "node", "id": 12331279662, "lat": 31.3185939, "lon": 120.7108426}, {"type": "node", "id": 12331279663, "lat": 31.318493, "lon": 120.7111102}, {"type": "node", "id": 12331279664, "lat": 31.3185331, "lon": 120.7111336}, {"type": "node", "id": 12331279665, "lat": 31.3186523, "lon": 120.7108292}, {"type": "node", "id": 12331279666, "lat": 31.3184472, "lon": 120.7101278}, {"type": "node", "id": 12331279667, "lat": 31.3185079, "lon": 120.7101043}, {"type": "node", "id": 12331279668, "lat": 31.3184942, "lon": 120.7100514}, {"type": "node", "id": 12331279669, "lat": 31.3184277, "lon": 120.7100755}, {"type": "node", "id": 12331279670, "lat": 31.318414, "lon": 120.7100151}, {"type": "node", "id": 12331279671, "lat": 31.3196044, "lon": 120.7095518}, {"type": "node", "id": 12331279672, "lat": 31.3196382, "lon": 120.7096852}, {"type": "node", "id": 12331279673, "lat": 31.3197338, "lon": 120.7098683}, {"type": "node", "id": 12331279674, "lat": 31.3197871, "lon": 120.7098301}, {"type": "node", "id": 12331279675, "lat": 31.3197049, "lon": 120.7096507}, {"type": "node", "id": 12331279676, "lat": 31.3196473, "lon": 120.7094472}, {"type": "node", "id": 12331279677, "lat": 31.3195419, "lon": 120.7094881}, {"type": "node", "id": 12331279678, "lat": 31.3195127, "lon": 120.7093846}, {"type": "node", "id": 12331279679, "lat": 31.3194962, "lon": 120.709391}, {"type": "node", "id": 12331279680, "lat": 31.3194795, "lon": 120.709332}, {"type": "node", "id": 12331279681, "lat": 31.3195844, "lon": 120.7092914}, {"type": "node", "id": 12331279682, "lat": 31.3195609, "lon": 120.7092083}, {"type": "node", "id": 12331279683, "lat": 31.319502, "lon": 120.7092311}, {"type": "node", "id": 12331279684, "lat": 31.3194348, "lon": 120.7089939}, {"type": "node", "id": 12389562867, "lat": 31.2715284, "lon": 120.6643737, "tags": {"name": "\u901a\u56ed\u8def\u5357", "public_transport": "station", "railway": "station", "station": "subway", "subway": "yes"}}, {"type": "node", "id": 12548076967, "lat": 31.2789347, "lon": 120.7777588, "tags": {"name": "\u82cf\u5dde\u4e1c", "public_transport": "station", "railway": "station", "train": "yes"}}, {"type": "node", "id": 12612402415, "lat": 31.0905165, "lon": 120.6948121, "tags": {"name": "\u9f99\u6d25", "public_transport": "station", "railway": "station", "train": "yes"}}, {"type": "node", "id": 12612402418, "lat": 31.1407235, "lon": 120.6952688, "tags": {"name": "\u5434\u6c5f", "public_transport": "station", "railway": "station", "train": "yes"}}, {"type": "node", "id": 12612402421, "lat": 31.2150042, "lon": 120.7286836, "tags": {"name": "\u5434\u4e2d", "public_transport": "station", "railway": "station", "train": "yes"}}, {"type": "node", "id": 13077560421, "lat": 31.265109, "lon": 120.7367046, "tags": {"bus": "yes", "highway": "bus_stop", "name": "\u677e\u6d9b\u8857\u521b\u82d1\u8def", "public_transport": "platform"}}, {"type": "node", "id": 13571661734, "lat": 31.3013049, "lon": 121.1011324}, {"type": "node", "id": 13571661735, "lat": 31.3010852, "lon": 121.1011168}, {"type": "node", "id": 13571661736, "lat": 31.3012077, "lon": 121.0988724}, {"type": "node", "id": 13571661737, "lat": 31.3014345, "lon": 121.098888}, {"type": "node", "id": 13572609192, "lat": 31.2714679, "lon": 120.752693, "tags": {"name": "\u91d1\u8c37\u8def", "name:en": "Jingu Lu", "public_transport": "station", "railway": "station", "station": "subway", "subway": "yes", "wikidata": "Q60675508"}}, {"type": "node", "id": 13607804724, "lat": 31.2501067, "lon": 120.7002881, "tags": {"name": "\u72ec\u5885\u6e56\u5357", "name:en": "Dushuhu South", "public_transport": "station", "railway": "station", "station": "subway", "subway": "yes", "wheelchair": "no"}}, {"type": "node", "id": 13608713674, "lat": 31.2715135, "lon": 120.7526676, "tags": {"name": "\u91d1\u8c37\u8def", "name:en": "Jingu Lu", "public_transport": "stop_position", "railway": "stop", "station": "subway", "subway": "yes"}}, {"type": "way", "id": 102774610, "nodes": [1186972550, 3116473830, 1186972455, 1186972467, 3835347927, 3116486429, 1186972476, 3835347928, 1186972509, 1186972567, 1186972550], "tags": {"building": "transportation", "building:levels": "3", "name": "\u5b89\u4ead", "name:en": "Anting", "name:zh": "\u5b89\u4ead", "name:zh-Hans": "\u5b89\u4ead", "name:zh-Hant": "\u5b89\u4ead", "network": "\u4e0a\u6d77\u5730\u94c1", "public_transport": "station", "railway": "station", "roof:orientation": "along", "roof:shape": "round", "station": "subway", "subway": "yes", "wikidata": "Q986925", "wikipedia": "zh:\u5b89\u4ead\u7ad9 (\u5730\u94c1)"}}, {"type": "way", "id": 1190615318, "nodes": [11054965836, 11054965835, 11054965834, 11054965833, 11054965832, 11054965831, 11054965830, 11054965829, 11054965828, 11054965827, 11054965826, 11054965825, 11054965824, 11054965823, 11054965822, 11054965821, 11054965820, 11054965819, 11054965818, 11054965817, 11054965816, 11054965815, 11054965814, 11054965813, 11054965812, 11054965811, 11054965810, 11054965809, 11054965808, 11054965807, 11054965806, 11054965805, 11054951304, 11054951303, 11054951302, 11054951301, 11055024672, 11054951300, 11054951299, 11054951298, 11054951297, 11055024673, 11054951296, 11054951295, 11054951294, 11054951293, 11054951292, 11054951291, 11054951290, 11054951289, 11054951288, 11054951287, 11054951286, 11054951285, 11054965836], "tags": {"building": "train_station", "layer": "-1", "location": "underground", "public_transport": "station", "station": "subway", "subway": "yes"}}, {"type": "way", "id": 1190621794, "nodes": [11055024539, 11055024538, 11055024537, 11055024536, 11055024535, 11055024534, 11055024533, 11055024532, 11055024531, 11055024530, 11055024529, 11055024528, 11055024527, 11055024526, 11055024525, 11055024524, 11055024523, 11055024522, 11055024521, 11055024520, 11055024519, 11055024518, 11055024517, 11055024516, 11055024515, 11055024514, 11055024513, 11055024512, 11055024511, 11055024510, 11055024509, 11055024508, 11055024507, 11055024506, 11055024505, 11055024504, 11055024503, 11055024502, 11055024501, 11055024500, 11055024499, 11055024498, 11055024497, 11055024496, 11055024495, 11055024494, 11055024493, 11055024492, 11055024491, 11055024539], "tags": {"building": "train_station", "layer": "-1", "location": "underground", "public_transport": "station", "station": "subway", "subway": "yes", "toilets": "yes"}}, {"type": "way", "id": 1190621795, "nodes": [11055024606, 11055024605, 11055024604, 11055024603, 11055024602, 11055024601, 11055024600, 11055024599, 11055024598, 11055024597, 11055024596, 11055024595, 11055024594, 11055024593, 11055024592, 11055024591, 11055024590, 11055024589, 11055024588, 11055024587, 11055024586, 11055024585, 11055024584, 11055024583, 11055024582, 11055024581, 11055024580, 11055024579, 11055024578, 11055024577, 11055024576, 11055024575, 11055024574, 11055024573, 11055024572, 11055024571, 11055024570, 11055024569, 11055024568, 11055024567, 11055024566, 11055024565, 11055024564, 11055024563, 11055024562, 11055024561, 11055024560, 11055024559, 11055024558, 11055024557, 11055024556, 11055024555, 11055024554, 11055024553, 11055024552, 11055024551, 11055024550, 11055024549, 11055024548, 11055024547, 11055024546, 11055024545, 11055024544, 11055024543, 11055024542, 11055024541, 11055024540, 11055024606], "tags": {"building": "train_station", "layer": "-1", "location": "underground", "public_transport": "station", "station": "subway", "subway": "yes", "toilets": "yes"}}, {"type": "way", "id": 1190621796, "nodes": [11055024634, 11055024633, 11055024632, 11055024631, 11055024630, 11055024629, 11055024628, 11055024627, 11055024626, 11055024625, 11055024624, 11055024623, 11055024622, 11055024621, 11055024620, 11055024619, 11055024618, 11055024617, 11055024616, 11055024615, 11055024614, 11055024613, 11055024612, 11055024611, 11055024610, 11055024609, 11055024608, 11055024607, 11055024634], "tags": {"building": "train_station", "layer": "-1", "location": "underground", "public_transport": "station", "station": "subway", "subway": "yes", "toilets": "yes"}}, {"type": "way", "id": 1190621797, "nodes": [11055024671, 11055024670, 11055024669, 11055024668, 11055024667, 11055024666, 11055024665, 11055024664, 11055024663, 11055024662, 11055024661, 11055024660, 11055024659, 11055024658, 11055024657, 11055024656, 11055024655, 11055024654, 11055024653, 11055024652, 11055024651, 11055024650, 11055024649, 11055024648, 11055024647, 11055024646, 11055024645, 11055024644, 11055024643, 11055024642, 11055024641, 11055024640, 11055024639, 11055024638, 11055024637, 11055024636, 11055024635, 11055024671], "tags": {"building": "train_station", "layer": "-1", "location": "underground", "public_transport": "station", "railway": "station", "station": "subway", "subway": "yes"}}, {"type": "way", "id": 1332633771, "nodes": [12328840963, 12328840962, 12328840961, 12328840960, 12328840959, 12328840958, 12328840957, 12328840956, 12328840955, 12328840954, 12328840953, 12328840952, 12328840951, 12328840950, 12328840963]}, {"type": "way", "id": 1332633772, "nodes": [12328840979, 12328840978, 12328840977, 12328840976, 12328840975, 12328840974, 12328840973, 12328840972, 12328840971, 12328840970, 12328840969, 12328840968, 12328840967, 12328840966, 12328840965, 12328840964, 12328840979]}, {"type": "way", "id": 1332633773, "nodes": [12328862641, 12328862640, 12328862639, 12328862638, 12328862637, 12328862636, 12328862635, 12328862634, 12328862633, 12328862632, 12328862631, 12328840949, 12328840948, 12328862630, 12328862629, 12328862628, 12328862627, 12328862626, 12328862625, 12328862624, 12328862623, 12328862622, 12328862621, 12328862620, 12328862619, 12328862618, 12328862617, 12328862616, 12328862615, 12328862614, 12328862613, 12328862612, 12328862611, 12328862610, 12328862609, 12328862608, 12328862607, 12328862606, 12328862605, 12328862604, 12328862603, 12328862602, 12328862601, 12328841000, 12328840999, 12328840998, 12328840997, 12328840996, 12328840995, 12328840994, 12328840993, 12328840992, 12328840991, 12328840990, 12328840989, 12328840988, 12328840987, 12328840986, 12328840985, 12328840984, 12328840983, 12328840982, 12328840981, 12328840980, 12328862641]}, {"type": "way", "id": 1332899288, "nodes": [12331211096, 12331211095, 12331211094, 12331211093, 12331211092, 12331211091, 12331211090, 12331211089, 12331211088, 12331211087, 12331211086, 12331211085, 12331211084, 12331211083, 12331211082, 12331211081, 12331211080, 12331211079, 12331211078, 12331211077, 12331211076, 12331211075, 12331211074, 12331211073, 12331211072, 12331211071, 12331211096], "tags": {"building": "train_station", "layer": "-1", "location": "underground", "name": "\u83b2\u6c60\u6865\u7ad9", "public_transport": "station", "station": "subway", "subway": "yes"}}, {"type": "way", "id": 1332899289, "nodes": [12331216116, 12331216115, 12331216114, 12331216113, 12331216112, 12331216111, 12331216110, 12331216109, 12331216108, 12331216107, 12331216106, 12331216105, 12331216104, 12331216103, 12331216102, 12331216101, 12331211100, 12331211099, 12331211098, 12331211097, 12331216116], "tags": {"building": "train_station", "layer": "-1", "location": "underground", "name": "\u4ec1\u7231\u8def\u7ad9", "public_transport": "station", "station": "subway", "subway": "yes"}}, {"type": "way", "id": 1332899291, "nodes": [12331216129, 12331216128, 12331216127, 12331216126, 12331216125, 12331216124, 12331216123, 12331216122, 12331216129]}, {"type": "way", "id": 1332899292, "nodes": [12331216182, 12331216181, 12331216180, 12331216179, 12331216178, 12331216177, 12331216176, 12331216175, 12331216174, 12331216173, 12331216172, 12331216171, 12331216170, 12331216169, 12331216168, 12331216167, 12331216166, 12331216165, 12331216164, 12331216163, 12331216162, 12331216161, 12331216160, 12331216159, 12331216158, 12331216157, 12331216156, 12331216155, 12331216154, 12331216153, 12331216152, 12331216151, 12331216150, 12331216149, 12331216148, 12331216147, 12331216146, 12331216145, 12331216144, 12331216143, 12331216142, 13077560421, 12331216141, 12331216140, 12331216139, 12331216138, 12331216137, 12331216136, 12331216135, 12331216134, 12331216133, 12331216132, 12331216131, 12331216130, 12331216182]}, {"type": "way", "id": 1332899293, "nodes": [12331216211, 12331216210, 12331216209, 12331216208, 12331216207, 12331216206, 12331216205, 12331216204, 12331216203, 12331216202, 12331216201, 12331216200, 12331216199, 12331216198, 12331216197, 12331216196, 12331216195, 12331216194, 12331216193, 12331216192, 12331216191, 12331216190, 12331216189, 12331216188, 12331216187, 12331216186, 12331216185, 12331216184, 12331216183, 12331216211], "tags": {"building": "train_station", "layer": "-1", "location": "underground", "name": "\u88d5\u65b0\u8def\u7ad9", "public_transport": "station", "station": "subway"}}, {"type": "way", "id": 1332899294, "nodes": [12331216240, 12331216212, 12331216213, 12331216214, 12331216215, 12331216216, 12331216217, 12331216218, 12331216219, 12331216220, 12331216221, 12331216222, 12331216223, 12331216224, 12331216225, 12331216226, 12331216227, 12331216228, 12331216229, 12331216230, 12331216231, 12331216232, 12331216233, 12331216234, 12331216235, 12331216236, 12331216237, 12331216238, 12331216239, 12331216245, 12331216244, 12331216243, 12331216242, 12331216241, 12331216240], "tags": {"building": "train_station", "layer": "-1", "location": "underground", "name": "\u8f66\u574a\u7ad9", "public_transport": "station", "station": "subway", "subway": "yes"}}, {"type": "way", "id": 1332901171, "nodes": [12331214923, 12331214922, 12331214921, 12331214920, 12331214923]}, {"type": "way", "id": 1332901172, "nodes": [12331214968, 12331214967, 12331214966, 12331214965, 12331214964, 12331214963, 12331214962, 12331214961, 12331214960, 12331214959, 12331214958, 12331214957, 12331214956, 12331214955, 12331214954, 12331214953, 12331214952, 12331214951, 12331214950, 12331214949, 12331214948, 12331214947, 12331214946, 12331214945, 12331214944, 12331214943, 12331214942, 12331214941, 12331214940, 12331214939, 12331214938, 12331214937, 12331214936, 12331214935, 12331214934, 12331214933, 12331214932, 12331214931, 12331214930, 12331214929, 12331214928, 12331214927, 12331214926, 12331214925, 12331214924, 12331214968]}, {"type": "way", "id": 1332906659, "nodes": [12331279684, 12331279683, 12331279682, 12331279681, 12331279680, 12331279679, 12331279678, 12331279677, 12331279676, 12331279675, 12331279674, 12331279673, 12331279672, 12331279671, 12331279670, 12331279669, 12331279668, 12331279667, 12331279666, 12331279665, 12331279664, 12331279663, 12331279662, 12331279661, 12331279660, 12331279659, 12331279658, 12331279657, 12331279656, 12331279655, 12331279654, 12331279653, 12331279652, 12331279651, 12331279684], "tags": {"building": "train_station", "layer": "-1", "location": "underground", "name": "\u82cf\u5dde\u5f53\u4ee3\u7f8e\u672f\u9986\u7ad9", "public_transport": "station", "station": "subway"}}, {"type": "way", "id": 1479476938, "nodes": [13571661734, 13571661735, 13571661736, 13571661737, 13571661734], "tags": {"building": "yes", "public_transport": "station", "railway": "station", "station": "subway", "subway": "yes"}}, {"type": "relation", "id": 18271742, "members": [{"type": "way", "ref": 1332633773, "role": "outer"},